#------------------------------------------------------------
~VERSION INFORMATION
VERS.               2.0  :CWLS LOG ASCII STANDARD - VERSION 2.0
WRAP.                NO  :ONE LINE PER DEPTH STEP
#------------------------------------------------------------
~WELL INFORMATION
STRT.FT         1.10000  :FIRST INDEX VALUE
STOP.FT         1439.10  :LAST INDEX VALUE
STEP.FT        0.100000  :STEP
NULL.            -99999  :NULL VALUE
COMP.         Princeton  :COMP
WELL.                    :
FLD.                     :
LOC.                     :LOC
SRVC.      Driller/USGS  :SRVC
CTRY.                    :
STAT.                NJ  :STAT
CNTY.            Mercer  :CNTY
DATE.         8/20/2019  :DATE
UWI.    XXXXXXXXXXXXXXX  :UWI
#------------------------------------------------------------
~CURVE INFORMATION
DEPT.FT                  :DEPTH
GAM(NAT).CPS             :GAM(NAT)
RES(FL).OHM-M            :RES(FL)
TEMP.DEG_F               :TEMP
SP_COND_.US/CM           :SP COND 
SUSCEP.CGS_E-5           :SUSCEP
MAG_TILT.DEG             :Mag Tilt
MAG_AZI.DEG              :Mag Azi
COND.MMHO/M              :COND
RES.OHM-M                :RES
#------------------------------------------------------------
~OTHER
#------------------------------------------------------------
~A  DEPT[FT]    GAM(NAT)     RES(FL)        TEMP    SP_COND_      SUSCEP    MAG_TILT     MAG_AZI        COND         RES
# ...
     1434.90     175.000     7.83881     65.5987     1275.70     5.45912    0.000000    0.000000     16.8338     59.4043
     1435.00     120.000     7.84762     65.5987     1274.27     2.04717    0.000000    0.000000     15.8498     63.0923
     1435.10     120.000     7.84762     65.5987     1274.27     5.45912    0.000000    0.000000     16.4779     60.6872
     1435.20     90.0000     7.83881     65.5987     1275.70     5.45912    0.000000    0.000000     15.8724     63.0026
     1435.30     180.000     7.84762     65.5987     1274.27     2.04717    0.000000    0.000000     16.5448     60.4420
     1435.40    0.000000     7.84322     65.6055     1274.99     5.45912    0.000000    0.000000     17.0302     58.7192
     1435.50    0.000000     7.83881     65.5987     1275.70     5.45912    0.000000    0.000000    -99999.0    -99999.0
     1435.60    0.000000     7.84762     65.6021     1274.27     2.04717    0.000000    0.000000    -99999.0    -99999.0
     1435.70    0.000000     7.83881     65.6055     1275.70     5.45912    0.000000    0.000000    -99999.0    -99999.0
     1435.80    0.000000     7.83881     65.6021     1275.70     5.45912    0.000000    0.000000    -99999.0    -99999.0
     1435.90    0.000000     7.83881     65.6055     1275.70     5.45912    0.000000    0.000000    -99999.0    -99999.0
     1436.00    0.000000     7.83881     65.6055     1275.70     2.04717    0.000000    0.000000    -99999.0    -99999.0
     1436.10    0.000000     7.83881     65.5987     1275.70     5.45912    0.000000    0.000000    -99999.0    -99999.0
     1436.20    0.000000     7.83881     65.5987     1275.70     2.04717    0.000000    0.000000    -99999.0    -99999.0
     1436.30    0.000000     7.84762     65.6055     1274.27     3.17738    0.000000    0.000000    -99999.0    -99999.0
     1436.40    0.000000     7.83881     65.6055     1275.70     5.45912    0.000000    0.000000    -99999.0    -99999.0
     1436.50    0.000000     7.83001     65.6122     1277.14     5.45912    0.000000    0.000000    -99999.0    -99999.0
     1436.60    0.000000     7.84322     65.6122     1274.99     3.17738    0.000000    0.000000    -99999.0    -99999.0
     1436.70    0.000000     7.83881     65.6055     1275.70     5.45912    0.000000    0.000000    -99999.0    -99999.0
     1436.80    0.000000     7.83881     65.6156     1275.70     5.45912    0.000000    0.000000    -99999.0    -99999.0
     1436.90    0.000000     7.83881     65.6190     1275.70     4.09434    0.000000    0.000000    -99999.0    -99999.0
     1437.00    0.000000     7.83881     65.6190     1275.70     5.45912    0.000000    0.000000    -99999.0    -99999.0
     1437.10    0.000000     7.83001     65.6257     1277.14     5.45912    0.000000    0.000000    -99999.0    -99999.0
     1437.20    0.000000     7.83881     65.6190     1275.70     5.13925    0.000000    0.000000    -99999.0    -99999.0
     1437.30    0.000000     7.83001     65.6224     1277.14    -99999.0    -99999.0    -99999.0    -99999.0    -99999.0
     1437.40    0.000000     7.83441     65.6190     1276.42    -99999.0    -99999.0    -99999.0    -99999.0    -99999.0
     1437.50    0.000000     7.83001     65.6257     1277.14    -99999.0    -99999.0    -99999.0    -99999.0    -99999.0
     1437.60    0.000000     7.83441     65.6257     1276.42    -99999.0    -99999.0    -99999.0    -99999.0    -99999.0
     1437.70    0.000000     7.83001     65.6325     1277.14    -99999.0    -99999.0    -99999.0    -99999.0    -99999.0
     1437.80    0.000000     7.83441     65.6257     1276.42    -99999.0    -99999.0    -99999.0    -99999.0    -99999.0
     1437.90    0.000000     7.83881     65.6257     1275.70    -99999.0    -99999.0    -99999.0    -99999.0    -99999.0
     1438.00    0.000000     7.83881     65.6257     1275.70    -99999.0    -99999.0    -99999.0    -99999.0    -99999.0
     1438.10    0.000000     7.83881     65.6257     1275.70    -99999.0    -99999.0    -99999.0    -99999.0    -99999.0
     1438.20    0.000000     7.84762     65.6224     1274.27    -99999.0    -99999.0    -99999.0    -99999.0    -99999.0
     1438.30    0.000000     7.83441     65.6257     1276.42    -99999.0    -99999.0    -99999.0    -99999.0    -99999.0
     1438.40    0.000000     7.83881     65.6257     1275.70    -99999.0    -99999.0    -99999.0    -99999.0    -99999.0
     1438.50    0.000000     7.83881     65.6257     1275.70    -99999.0    -99999.0    -99999.0    -99999.0    -99999.0
     1438.60    0.000000     7.83441     65.6190     1276.42    -99999.0    -99999.0    -99999.0    -99999.0    -99999.0
     1438.70    0.000000     7.83881     65.6257     1275.70    -99999.0    -99999.0    -99999.0    -99999.0    -99999.0
     1438.80    0.000000    0.000000     65.6257     1275.70    -99999.0    -99999.0    -99999.0    -99999.0    -99999.0
     1438.90    0.000000    0.000000     65.6257     1275.70    -99999.0    -99999.0    -99999.0    -99999.0    -99999.0
     1439.00    0.000000    0.000000     65.6257     1275.70    -99999.0    -99999.0    -99999.0    -99999.0    -99999.0
     1439.10    0.000000    0.000000     65.6257     1275.70    -99999.0    -99999.0    -99999.0    -99999.0    -99999.0
