#------------------------------------------------------------
~VERSION INFORMATION
VERS.               2.0  :CWLS LOG ASCII STANDARD - VERSION 2.0
WRAP.                NO  :ONE LINE PER DEPTH STEP
#------------------------------------------------------------
~WELL INFORMATION
STRT.FT         1.10000  :FIRST INDEX VALUE
STOP.FT         1439.10  :LAST INDEX VALUE
STEP.FT        0.100000  :STEP
NULL.            -99999  :NULL VALUE
COMP.         Princeton  :COMP
WELL.                    :
FLD.                     :
LOC.                     :LOC
SRVC.      Driller/USGS  :SRVC
CTRY.                    :
STAT.                NJ  :STAT
CNTY.            Mercer  :CNTY
DATE.         8/20/2019  :DATE
UWI.    XXXXXXXXXXXXXXX  :UWI
#------------------------------------------------------------
~CURVE INFORMATION
DEPT.FT                  :DEPTH
GAM(NAT).CPS             :GAM(NAT)
RES(FL).OHM-M            :RES(FL)
TEMP.DEG_F               :TEMP
SP_COND_.US/CM           :SP COND 
SUSCEP.CGS_E-5           :SUSCEP
MAG_TILT.DEG             :Mag Tilt
MAG_AZI.DEG              :Mag Azi
COND.MMHO/M              :COND
RES.OHM-M                :RES
#------------------------------------------------------------
~OTHER
#------------------------------------------------------------
~A  DEPT[FT]    GAM(NAT)     RES(FL)        TEMP    SP_COND_      SUSCEP    MAG_TILT     MAG_AZI        COND         RES
# ...
     959.200     150.000     8.70200     62.8540     1149.16     5.45912     7.17725     184.281     22.1086     45.2312
     959.300     230.000     8.70200     62.8574     1149.16     5.45912     7.67197     184.590     22.9981     43.4819
     959.400     140.000     8.70200     62.8608     1149.16     5.45912     7.51532     182.439     23.2165     43.0728
     959.500     125.000     8.70200     62.8675     1149.16     5.45912     7.47992     181.802     22.4414     44.5605
     959.600     170.000     8.71080     62.8675     1148.00     5.45912     7.55260     180.839     21.8632     45.7389
     959.700     145.000     8.70200     62.8709     1149.16     5.45912     6.52387     180.938     20.2941     49.2754
     959.800     90.0000     8.71080     62.8675     1148.00     5.45912     8.01221     177.401     18.9887     52.6630
     959.900     165.000     8.70200     62.8709     1149.16     5.45912     6.70530     176.110     19.1028     52.3484
     960.000     90.0000     8.70200     62.8742     1149.16     5.45912     7.46794     176.988     20.2070     49.4877
     960.100     115.000     8.70200     62.8776     1149.16     5.45912     7.48055     175.359     19.9023     50.2455
     960.200     60.0000     8.70640     62.8742     1148.58     5.45912     7.56553     174.823     18.2607     54.7626
     960.300     155.000     8.70200     62.8776     1149.16     5.45912     7.47101     176.063     19.6847     50.8010
     960.400     120.000     8.70200     62.8675     1149.16     5.45912     7.65339     177.015     18.9017     52.9053
     960.500     140.000     8.70200     62.8675     1149.16     5.45912     7.22783     174.317     18.3801     54.4066
     960.600     100.000     8.70200     62.8574     1149.16     5.45912     8.00631     175.386     18.0435     55.4217
     960.700     125.000     8.70200     62.8540     1149.16    -1.36478     7.25891     174.167     17.9458     55.7235
     960.800     100.000     8.70200     62.8439     1149.16    -1.36478     7.93657     176.080     17.0777     58.5557
     960.900     110.000     8.70200     62.8406     1149.16    -1.36478     6.11439     177.066     18.2932     54.6650
     961.000     85.0000     8.70640     62.8372     1148.58     5.45912     7.85651     176.390     16.5574     60.3959
     961.100     110.000     8.70200     62.8406     1149.16     5.45912     7.48123     176.645     16.4978     60.6141
     961.200     180.000     8.71080     62.8372     1148.00     5.45912     7.46861     177.091     16.2974     61.3595
     961.300     90.0000     8.71080     62.8473     1148.00     5.45912     7.53721     177.649     16.0375     62.3540
     961.400     105.000     8.70200     62.8507     1149.16     5.45912     7.45318     177.330     16.7308     59.7699
     961.500     160.000     8.71080     62.8540     1148.00     5.45912     7.61442     177.682     16.3516     61.1562
     961.600     95.0000     8.71080     62.8473     1148.00     5.45912     7.08622     176.637     17.5388     57.0166
     961.700     150.000     8.71961     62.8473     1146.84     5.45912     7.52587     176.720     15.4314     64.8031
     961.800     180.000     8.71080     62.8406     1148.00     5.45912     7.57471     176.730     15.0420     66.4805
     961.900     170.000     8.71961     62.8406     1146.84     5.45912     7.52962     176.545     16.2107     61.6875
     962.000     170.000     8.71521     62.8439     1147.42     5.45912     7.46588     176.399     17.1645     58.2598
     962.100     170.000     8.72842     62.8338     1145.68     5.45912     7.71896     176.886     16.5845     60.2972
     962.200     95.0000     8.71961     62.8406     1146.84     5.45912     7.33514     175.472     15.1718     65.9119
     962.300     120.000     8.72842     62.8372     1145.68    -1.36478     7.47391     177.336     15.8209     63.2074
     962.400     110.000     8.73723     62.8473     1144.53     5.45912     7.62140     176.047     15.6045     64.0842
     962.500     110.000     8.73282     62.8540     1145.10     5.45912     7.37188     176.324     16.4274     60.8739
     962.600     190.000     8.72842     62.8540     1145.68     5.45912     7.36895     176.472     15.4314     64.8031
     962.700     100.000     8.72842     62.8473     1145.68     5.45912     7.36660     176.332     15.5882     64.1509
     962.800     45.0000     8.71961     62.8338     1146.84     5.45912     7.38407     176.141     15.8642     63.0349
     962.900     100.000     8.72842     62.8237     1145.68     5.45912     7.40390     176.380     16.8175     59.4618
     963.000     125.000     8.71961     62.8069     1146.84     5.45912     7.33746     176.015     16.9910     58.8547
     963.100     90.0000     8.72842     62.8035     1145.68     5.45912     7.36961     175.608     17.5984     56.8232
     963.200     110.000     8.71961     62.8136     1146.84     5.45912     7.42122     175.298     15.2583     65.5382
     963.300     65.0000     8.72842     62.8204     1145.68     5.45912     7.32988     175.088     15.4314     64.8031
     963.400     130.000     8.73723     62.8338     1144.53     5.45912     7.33608     174.392     15.6315     63.9733
     963.500     135.000     8.73282     62.8406     1145.10     5.45912     7.32631     174.305     17.0777     58.5557
     963.600     60.0000     8.72842     62.8406     1145.68     5.45912     7.35787     173.869     13.4438     74.3837
     963.700     55.0000     8.73723     62.8473     1144.53     5.45912     7.35254     174.201     16.3407     61.1968
     963.800     100.000     8.72842     62.8473     1145.68     5.45912     7.34148     173.632     17.4248     57.3894
     963.900     110.000     8.73282     62.8473     1145.10     5.45912     7.35532     172.827     15.6045     64.0842
     964.000     70.0000     8.73723     62.8473     1144.53     5.45912     7.35997     173.177     12.7540     78.4066
     964.100     70.0000     8.72842     62.8338     1145.68     5.45912     7.37688     176.361     16.2974     61.3595
     964.200     50.0000     8.73723     62.8204     1144.53     5.45912     7.38705     172.301     13.7027     72.9784
     964.300     90.0000     8.72842     62.8069     1145.68     5.45912     7.39795     172.133     15.7776     63.3808
     964.400     70.0000     8.73723     62.8002     1144.53     5.45912     7.35908     171.710     15.6478     63.9069
     964.500     95.0000     8.73723     62.8035     1144.53     5.45912     7.41952     171.335     16.3516     61.1562
     964.600     80.0000     8.73282     62.8069     1145.10     5.45912     7.36105     170.942     15.3124     65.3067
     964.700     50.0000     8.73723     62.8069     1144.53     5.45912     7.35101     170.585     16.5141     60.5544
     964.800     50.0000     8.73723     62.8103     1144.53     5.45912     7.40069     169.971     15.6045     64.0842
     964.900     85.0000     8.73723     62.8204     1144.53     5.45912     7.36111     169.097     15.4746     64.6219
     965.000     70.0000     8.73723     62.8305     1144.53     5.45912     7.38418     168.368     15.0852     66.2899
     965.100     85.0000     8.72842     62.8338     1145.68     5.45912     7.32530     169.185     16.7308     59.7699
     965.200     80.0000     8.73282     62.8406     1145.10     5.45912     7.40165     169.238     15.6045     64.0842
     965.300     95.0000     8.73723     62.8406     1144.53     5.45912     7.51528     168.633     15.0852     66.2899
     965.400     140.000     8.73282     62.8439     1145.10     5.45912     7.28473     169.410     14.8258     67.4500
     965.500     80.0000     8.73723     62.8473     1144.53     5.45912     7.39506     168.482     16.5574     60.3959
     965.600     35.0000     8.72842     62.8473     1145.68     5.45912     7.45228     169.475     15.5612     64.2624
     965.700     60.0000     8.73723     62.8473     1144.53     5.45912     6.81074     169.366     16.7308     59.7699
     965.800     70.0000     8.73282     62.8406     1145.10     5.45912     7.68800     167.861     16.1674     61.8528
