#------------------------------------------------------------
~VERSION INFORMATION
VERS.               2.0  :CWLS LOG ASCII STANDARD - VERSION 2.0
WRAP.                NO  :ONE LINE PER DEPTH STEP
#------------------------------------------------------------
~WELL INFORMATION
STRT.FT         1.10000  :FIRST INDEX VALUE
STOP.FT         1439.10  :LAST INDEX VALUE
STEP.FT        0.100000  :STEP
NULL.            -99999  :NULL VALUE
COMP.         Princeton  :COMP
WELL.                    :
FLD.                     :
LOC.                     :LOC
SRVC.      Driller/USGS  :SRVC
CTRY.                    :
STAT.                NJ  :STAT
CNTY.            Mercer  :CNTY
DATE.         8/20/2019  :DATE
UWI.    XXXXXXXXXXXXXXX  :UWI
#------------------------------------------------------------
~CURVE INFORMATION
DEPT.FT                  :DEPTH
GAM(NAT).CPS             :GAM(NAT)
RES(FL).OHM-M            :RES(FL)
TEMP.DEG_F               :TEMP
SP_COND_.US/CM           :SP COND 
SUSCEP.CGS_E-5           :SUSCEP
MAG_TILT.DEG             :Mag Tilt
MAG_AZI.DEG              :Mag Azi
COND.MMHO/M              :COND
RES.OHM-M                :RES
#------------------------------------------------------------
~OTHER
#------------------------------------------------------------
~A  DEPT[FT]    GAM(NAT)     RES(FL)        TEMP    SP_COND_      SUSCEP    MAG_TILT     MAG_AZI        COND         RES
# ...
     764.900     60.0000     12.6216     60.2176     792.296     5.45912     5.21347     156.998     15.1339     66.0768
     765.000     100.000     12.6216     60.2143     792.296     5.45912     8.67863     155.478     14.8906     67.1563
     765.100     100.000     12.6216     60.2109     792.296     5.45912     6.55065     158.540     13.9239     71.8189
     765.200     90.0000     12.6171     60.2143     792.572     5.45912     6.49925     159.844     14.9447     66.9134
     765.300     80.0000     12.6127     60.2109     792.849    -1.36478     6.39914     160.333     15.4963     64.5317
     765.400     55.0000     12.6216     60.2176     792.296     2.04717     6.53894     159.014     15.7398     63.5334
     765.500     80.0000     12.6127     60.2109     792.849     5.45912     6.36893     156.032     16.7633     59.6540
     765.600     70.0000     12.6127     60.2109     792.849     5.45912     6.51451     156.106     15.9292     62.7778
     765.700     40.0000     12.6171     60.2109     792.572     5.45912     6.56424     155.625     15.5666     64.2401
     765.800     95.0000     12.6216     60.2176     792.296    -1.36478     6.25291     154.268     14.8906     67.1563
     765.900     90.0000     12.6171     60.2143     792.572     5.45912     6.36180     151.231     16.0700     62.2279
     766.000     30.0000     12.6127     60.2109     792.849     5.45912     6.58785     151.345     15.3502     65.1456
     766.100     50.0000     12.6171     60.2176     792.572    -1.36478     6.37215     153.241     15.8426     63.1210
     766.200     65.0000     12.6304     60.2109     791.743    -1.36478     6.51094     152.639     15.9833     62.5652
     766.300     50.0000     12.6612     60.2176     789.815     5.45912     6.20989     151.208     14.9177     67.0346
     766.400     55.0000     12.6832     60.2109     788.444    -1.36478     6.96172     152.853     17.2296     58.0397
     766.500     60.0000     12.7052     60.2176     787.078     2.04717     6.43462     156.998     14.8312     67.4255
     766.600     50.0000     12.7184     60.2109     786.260     5.45912     5.88576     157.822     15.4097     64.8941
     766.700     70.0000     12.7272     60.2109     785.716     5.45912     7.94539     153.111     16.0700     62.2279
     766.800     40.0000     12.7361     60.2109     785.173     2.04717     6.45468     156.011     16.0591     62.2699
     766.900     55.0000     12.7449     60.2076     784.630     5.45912     6.70908     155.497     16.0700     62.2279
     767.000     40.0000     12.7537     60.2109     784.088     5.45912     6.65055     155.456     15.0042     66.6482
     767.100     45.0000     12.7625     60.2042     783.547     2.04717     6.92606     157.760     15.6694     63.8186
     767.200     60.0000     12.7625     60.2076     783.547    -1.36478     6.71212     158.290     13.5085     74.0274
     767.300     60.0000     12.7713     60.2042     783.007     5.45912     6.56063     155.246     15.9563     62.6713
     767.400     60.0000     12.7669     60.2076     783.277     5.45912     6.66456     152.810     16.9368     59.0431
     767.500     75.0000     12.7713     60.2042     783.007     5.45912     6.62439     154.156     15.7560     63.4679
     767.600     100.000     12.7669     60.2042     783.277    -1.36478     6.58444     154.032     15.8967     62.9061
     767.700     110.000     12.7801     60.1975     782.467     5.45912     6.96017     155.367     15.3232     65.2606
     767.800     75.0000     12.7757     60.2009     782.737     5.45912     6.01801     156.552     16.8230     59.4426
     767.900     70.0000     12.7889     60.1975     781.928     2.04717     6.73893     158.776     17.2296     58.0397
     768.000     55.0000     12.7801     60.1975     782.467    -1.36478     6.56131     154.897     15.8967     62.9061
     768.100     40.0000     12.8197     60.1975     780.048     5.45912     6.38185     154.528     15.3664     65.0769
     768.200     105.000     12.8329     60.1975     779.245     5.45912     6.57721     160.103     16.3299     61.2374
     768.300     60.0000     12.8241     60.1975     779.780     5.45912     6.46918     154.974     16.9693     58.9299
     768.400     80.0000     12.8241     60.1975     779.780    -1.36478     6.54780     155.240     15.2204     65.7012
     768.500     30.0000     12.8285     60.1975     779.512    -1.36478     6.49377     161.337     16.1891     61.7700
     768.600     100.000     12.8241     60.1975     779.780     5.45912     6.38149     161.735     15.7831     63.3591
     768.700     110.000     12.8241     60.1942     779.780     5.45912     6.57718     163.047     18.0109     55.5219
     768.800     140.000     12.8021     60.1975     781.121     5.45912     6.75688     164.856     15.2366     65.6312
     768.900     50.0000     12.8065     60.1975     780.852     5.45912     6.33624     165.402     16.3461     61.1765
     769.000     120.000     12.8065     60.1975     780.852     5.45912     7.05610     166.457     14.0265     71.2939
     769.100     70.0000     12.8153     60.1975     780.316     5.45912     5.59386     165.926     16.3299     61.2374
     769.200     90.0000     12.8241     60.1975     779.780    -1.36478     6.47883     164.639     16.9693     58.9299
     769.300     70.0000     12.8329     60.1975     779.245     2.04717     6.17116     166.379     15.9833     62.5652
     769.400     80.0000     12.8197     60.2042     780.048     5.45912     6.63823     165.710     15.4963     64.5317
     769.500     105.000     12.8241     60.1908     779.780     5.45912     6.85982     166.042     17.8915     55.8925
     769.600     20.0000     12.8197     60.2009     780.048     5.45912     6.25826     166.408     17.6635     56.6138
     769.700     80.0000     12.8153     60.2042     780.316     5.45912     7.84729     163.517     16.5791     60.3169
     769.800     120.000     12.8197     60.2009     780.048     5.45912     6.40812     162.563     16.4166     60.9141
     769.900     80.0000     12.8065     60.1975     780.852    -1.36478     4.98544     165.067     17.7504     56.3369
     770.000     90.0000     12.8021     60.2009     781.121     5.45912     7.18184     163.060     14.8744     67.2295
     770.100     115.000     12.8065     60.2042     780.852     5.45912     6.67032     163.023     16.1024     62.1024
     770.200     70.0000     12.7977     60.2009     781.390     5.45912     6.49667     165.163     15.8859     62.9489
     770.300     100.000     12.7801     60.2042     782.467     5.45912     6.51920     165.083     17.2838     57.8576
     770.400     85.0000     12.7889     60.2009     781.928     2.04717     6.58856     161.860     15.9292     62.7778
     770.500     110.000     12.7669     60.1975     783.277    -1.36478     6.44019     163.975     16.4762     60.6938
     770.600     55.0000     12.7801     60.2042     782.467    -1.36478     6.96544     164.240     15.3232     65.2606
     770.700     40.0000     12.7625     60.2009     783.547     2.04717     6.03263     165.332     16.9693     58.9299
     770.800     110.000     12.7625     60.1975     783.547     5.45912     6.56141     166.419     16.6495     60.0617
     770.900     70.0000     12.7845     60.1975     782.197     5.45912     6.59516     167.127     16.0158     62.4383
     771.000     95.0000     12.7713     60.1975     783.007     5.45912     6.59643     166.439     16.0158     62.4383
     771.100     60.0000     12.7801     60.1942     782.467     5.45912     6.42356     162.497     18.0652     55.3551
     771.200     80.0000     12.7713     60.1908     783.007     5.45912     6.29144     163.013     16.2757     61.4412
     771.300     75.0000     12.7537     60.1942     784.088     5.45912     6.74450     163.116     17.1428     58.3335
     771.400     60.0000     12.7537     60.1975     784.088     5.45912     6.43511     160.542     17.1970     58.1496
     771.500     95.0000     12.7537     60.1908     784.088    -1.36478     6.69706     161.685     17.5333     57.0342
