#------------------------------------------------------------
~VERSION INFORMATION
VERS.               2.0  :CWLS LOG ASCII STANDARD - VERSION 2.0
WRAP.                NO  :ONE LINE PER DEPTH STEP
#------------------------------------------------------------
~WELL INFORMATION
STRT.FT         1.10000  :FIRST INDEX VALUE
STOP.FT         1439.10  :LAST INDEX VALUE
STEP.FT        0.100000  :STEP
NULL.            -99999  :NULL VALUE
COMP.         Princeton  :COMP
WELL.                    :
FLD.                     :
LOC.                     :LOC
SRVC.      Driller/USGS  :SRVC
CTRY.                    :
STAT.                NJ  :STAT
CNTY.            Mercer  :CNTY
DATE.         8/20/2019  :DATE
UWI.    XXXXXXXXXXXXXXX  :UWI
#------------------------------------------------------------
~CURVE INFORMATION
DEPT.FT                  :DEPTH
GAM(NAT).CPS             :GAM(NAT)
RES(FL).OHM-M            :RES(FL)
TEMP.DEG_F               :TEMP
SP_COND_.US/CM           :SP COND 
SUSCEP.CGS_E-5           :SUSCEP
MAG_TILT.DEG             :Mag Tilt
MAG_AZI.DEG              :Mag Azi
COND.MMHO/M              :COND
RES.OHM-M                :RES
#------------------------------------------------------------
~OTHER
#------------------------------------------------------------
~A  DEPT[FT]    GAM(NAT)     RES(FL)        TEMP    SP_COND_      SUSCEP    MAG_TILT     MAG_AZI        COND         RES
# ...
     1053.00     85.0000     8.69319     63.2580     1150.33     5.45912     8.05552     184.423     16.4653     60.7337
     1053.10     60.0000     8.68438     63.2547     1151.49     5.45912     8.00986     184.379     18.4779     54.1187
     1053.20     100.000     8.69319     63.2580     1150.33     5.45912     7.95160     184.573     17.6798     56.5617
     1053.30     125.000     8.68878     63.2648     1150.91     2.04717     7.93590     185.068     17.5767     56.8934
     1053.40     120.000     8.68438     63.2648     1151.49    -1.36478     8.00373     185.218     18.0706     55.3385
     1053.50     70.0000     8.68878     63.2681     1150.91    -1.36478     7.91056     185.503     17.5225     57.0696
     1053.60     110.000     8.68438     63.2648     1151.49    -1.36478     7.94458     185.309     16.4816     60.6738
     1053.70     120.000     8.69319     63.2513     1150.33    -1.36478     7.94679     185.447     16.3353     61.2171
     1053.80     140.000     8.68438     63.2446     1151.49    -1.36478     7.94577     185.549     15.6694     63.8186
     1053.90     130.000     8.69319     63.2345     1150.33     5.45912     7.90210     186.021     15.7452     63.5115
     1054.00     90.0000     8.68878     63.2378     1150.91     5.45912     7.93678     185.294     14.1992     70.4265
     1054.10     95.0000     8.69319     63.2378     1150.33     2.04717     7.94655     185.266     16.8284     59.4234
     1054.20     70.0000     8.68878     63.2446     1150.91    -1.36478     7.91657     184.928     16.7688     59.6347
     1054.30     70.0000     8.69319     63.2446     1150.33    -1.36478     7.89464     185.554     13.9725     71.5693
     1054.40     60.0000     8.68878     63.2446     1150.91    -1.36478     7.97142     185.081     16.7254     59.7893
     1054.50     80.0000     8.69319     63.2580     1150.33    -1.36478     7.90204     184.443     16.5357     60.4750
     1054.60     20.0000     8.69319     63.2580     1150.33    -1.36478     7.91830     184.899     17.0452     58.6675
     1054.70     80.0000     8.69319     63.2580     1150.33    -1.36478     7.91796     184.652     17.7504     56.3369
     1054.80     80.0000     8.68878     63.2580     1150.91    -1.36478     7.88938     184.831     16.6550     60.0422
     1054.90     70.0000     8.68438     63.2648     1151.49    -1.36478     7.92359     184.868     13.9563     71.6523
     1055.00     60.0000     8.68878     63.2681     1150.91    -1.36478     7.87413     184.832     15.7885     63.3374
     1055.10     30.0000     8.68438     63.2715     1151.49     5.45912     7.90670     184.408     16.3786     61.0551
     1055.20     80.0000     8.68878     63.2749     1150.91     5.45912     7.82537     184.763     17.4357     57.3537
     1055.30     80.0000     8.69319     63.2782     1150.33     5.45912     7.88529     183.733     16.5953     60.2579
     1055.40     90.0000     8.68878     63.2816     1150.91     5.45912     7.84478     183.999     16.1891     61.7700
     1055.50     100.000     8.69319     63.2782     1150.33     5.45912     7.87948     183.969     16.7417     59.7312
     1055.60     70.0000     8.68878     63.2883     1150.91     2.04717     7.80837     183.941     15.6424     63.9290
     1055.70     90.0000     8.68438     63.2850     1151.49     5.45912     7.55460     183.799     16.6550     60.0422
     1055.80     50.0000     8.68878     63.2917     1150.91    -1.36478     8.06641     185.031     16.8988     59.1757
     1055.90     110.000     8.69319     63.2850     1150.33     2.04717     7.68716     185.588     17.6961     56.5096
     1056.00     65.0000     8.68878     63.2715     1150.91     5.45912     8.15486     184.667     16.8988     59.1757
     1056.10     70.0000     8.69319     63.2580     1150.33     5.45912     7.87557     184.824     17.4357     57.3537
     1056.20     35.0000     8.69319     63.2547     1150.33     5.45912     8.00036     184.408     16.3624     61.1158
     1056.30     40.0000     8.69319     63.2580     1150.33     5.45912     7.94022     184.417     16.8121     59.4809
     1056.40     95.0000     8.69759     63.2614     1149.74     5.45912     7.90099     184.170     16.3624     61.1158
     1056.50     50.0000     8.69319     63.2648     1150.33     5.45912     7.94483     183.929     16.9856     58.8735
     1056.60     65.0000     8.69319     63.2715     1150.33     5.45912     7.88764     183.959     15.9292     62.7778
     1056.70     80.0000     8.69319     63.2782     1150.33     5.45912     7.84803     183.926     16.7254     59.7893
     1056.80     80.0000     8.69319     63.2816     1150.33     5.45912     7.87579     184.134     16.6224     60.1596
     1056.90     70.0000     8.69759     63.2850     1149.74     5.45912     7.86349     183.939     16.7091     59.8475
     1057.00     40.0000     8.69319     63.2917     1150.33     5.45912     7.80920     184.228     18.5214     53.9917
     1057.10     50.0000     8.69319     63.2883     1150.33     5.45912     7.86019     183.954     15.1501     66.0060
     1057.20     40.0000     8.69319     63.2850     1150.33     5.45912     7.83306     183.642     17.0452     58.6675
     1057.30     45.0000     8.69759     63.2782     1149.74     2.04717     7.85798     183.324     18.1846     54.9915
     1057.40     70.0000     8.70200     63.2782     1149.16     5.45912     7.83294     183.405     17.8698     55.9604
     1057.50     85.0000     8.69759     63.2782     1149.74     5.45912     7.83294     183.672     15.5558     64.2848
     1057.60     80.0000     8.70200     63.2782     1149.16     5.45912     7.81591     183.735     14.8366     67.4009
     1057.70     105.000     8.69759     63.2816     1149.74     5.45912     7.81058     183.826     17.5496     56.9813
     1057.80     60.0000     8.69319     63.2782     1150.33     2.04717     7.84396     183.488     17.0018     58.8172
     1057.90     105.000     8.69759     63.2850     1149.74    -1.36478     7.82045     183.660     15.3556     65.1227
     1058.00     100.000     8.69319     63.2850     1150.33    -1.36478     7.81067     184.113     16.3786     61.0551
     1058.10     100.000     8.69759     63.2816     1149.74    -1.36478     7.81162     184.258     17.5225     57.0696
     1058.20     100.000     8.69319     63.2648     1150.33    -1.36478     7.82166     184.350     16.9422     59.0242
     1058.30     115.000     8.69759     63.2648     1149.74     5.45912     7.83403     184.542     16.7417     59.7312
     1058.40     40.0000     8.70200     63.2580     1149.16     5.45912     7.75837     184.790     15.5720     64.2178
     1058.50     105.000     8.69319     63.2681     1150.33     5.45912     7.87718     184.239     16.5357     60.4750
     1058.60     110.000     8.69759     63.2715     1149.74     5.45912     7.79542     184.879     15.6586     63.8627
     1058.70     125.000     8.71080     63.2749     1148.00     5.45912     7.85625     185.041     15.4963     64.5317
     1058.80     110.000     8.70640     63.2782     1148.58     5.45912     7.87978     184.764     15.9292     62.7778
     1058.90     105.000     8.70200     63.2782     1149.16     5.45912     7.49188     184.835     15.6153     64.0398
     1059.00     70.0000     8.70640     63.2816     1148.58     5.45912     8.07200     184.214     18.3584     54.4710
     1059.10     110.000     8.71080     63.2850     1148.00     5.45912     7.47109     184.520     15.6586     63.8627
     1059.20     100.000     8.70200     63.2816     1149.16     5.45912     8.04884     185.308     15.7019     63.6867
     1059.30     40.0000     8.70200     63.2850     1149.16     2.04717     7.76708     183.525     15.6856     63.7526
     1059.40     70.0000     8.70640     63.2850     1148.58    -1.36478     7.71942     183.350     16.0483     62.3119
     1059.50     170.000     8.69319     63.2984     1150.33    -1.36478     7.78800     183.355     16.3082     61.3187
     1059.60     85.0000     8.70200     63.2951     1149.16    -1.36478     7.69408     183.742     16.5520     60.4157
