#------------------------------------------------------------
~VERSION INFORMATION
VERS.               2.0  :CWLS LOG ASCII STANDARD - VERSION 2.0
WRAP.                NO  :ONE LINE PER DEPTH STEP
#------------------------------------------------------------
~WELL INFORMATION
STRT.FT         1.10000  :FIRST INDEX VALUE
STOP.FT         1439.10  :LAST INDEX VALUE
STEP.FT        0.100000  :STEP
NULL.            -99999  :NULL VALUE
COMP.         Princeton  :COMP
WELL.                    :
FLD.                     :
LOC.                     :LOC
SRVC.      Driller/USGS  :SRVC
CTRY.                    :
STAT.                NJ  :STAT
CNTY.            Mercer  :CNTY
DATE.         8/20/2019  :DATE
UWI.    XXXXXXXXXXXXXXX  :UWI
#------------------------------------------------------------
~CURVE INFORMATION
DEPT.FT                  :DEPTH
GAM(NAT).CPS             :GAM(NAT)
RES(FL).OHM-M            :RES(FL)
TEMP.DEG_F               :TEMP
SP_COND_.US/CM           :SP COND 
SUSCEP.CGS_E-5           :SUSCEP
MAG_TILT.DEG             :Mag Tilt
MAG_AZI.DEG              :Mag Azi
COND.MMHO/M              :COND
RES.OHM-M                :RES
#------------------------------------------------------------
~OTHER
#------------------------------------------------------------
~A  DEPT[FT]    GAM(NAT)     RES(FL)        TEMP    SP_COND_      SUSCEP    MAG_TILT     MAG_AZI        COND         RES
# ...
     671.100     145.000     11.9521     60.3918     836.670     2.04717     6.27989     170.166     19.4997     51.2828
     671.200     150.000     11.9521     60.3918     836.670     5.45912     6.29145     169.462     19.3257     51.7446
     671.300     130.000     11.9565     60.3918     836.362     5.45912     6.25024     169.981     19.1680     52.1702
     671.400     155.000     11.9610     60.3851     836.054     5.45912     6.25826     170.082     18.5757     53.8338
     671.500     100.000     11.9654     60.3918     835.746     5.45912     6.29099     169.060     18.1955     54.9587
     671.600     155.000     11.9610     60.3918     836.054     5.45912     6.29471     170.112     19.2713     51.8905
     671.700     170.000     11.9610     60.3851     836.054     2.04717     6.22999     170.108     19.0647     52.4528
     671.800     75.0000     11.9698     60.3851     835.439     5.45912     6.22316     171.238     18.6028     53.7552
     671.900     110.000     11.9654     60.3884     835.746     5.45912     6.13341     170.399     17.2730     57.8940
     672.000     160.000     11.9698     60.3851     835.439     5.45912     6.25032     170.031     17.8481     56.0285
     672.100     140.000     11.9698     60.3851     835.439     5.45912     6.21711     169.444     17.5008     57.1403
     672.200     180.000     11.9654     60.3784     835.746     5.45912     6.18369     168.993     17.2404     58.0032
     672.300     195.000     11.9786     60.3851     834.824     5.45912     6.04717     169.274     19.3583     51.6574
     672.400     220.000     11.9698     60.3851     835.439     5.45912     6.07655     169.485     17.2133     58.0946
     672.500     155.000     11.9698     60.3851     835.439     5.45912     6.04468     169.522     18.1955     54.9587
     672.600     120.000     11.9742     60.3851     835.131     5.45912     6.04426     169.214     19.1843     52.1258
     672.700     125.000     11.9698     60.3851     835.439     5.45912     6.06771     169.291     19.6901     50.7870
     672.800     130.000     11.9742     60.3851     835.131     5.45912     6.04782     169.463     17.7612     56.3024
     672.900     160.000     11.9874     60.3851     834.211     5.45912     6.03479     169.558     17.3869     57.5147
     673.000     150.000     11.9830     60.3884     834.518     5.45912     6.04143     170.202     16.5791     60.3169
     673.100     95.0000     11.9874     60.3851     834.211     5.45912     6.00650     170.660     17.4140     57.4251
     673.200     160.000     11.9874     60.3884     834.211     5.45912     6.05704     170.573     16.1295     61.9981
     673.300     100.000     11.9874     60.3918     834.211     2.04717     5.99758     170.757     16.2324     61.6052
     673.400     110.000     11.9874     60.3884     834.211    -1.36478     6.03293     170.566     17.6744     56.5790
     673.500     175.000     11.9918     60.3851     833.905    -1.36478     5.95020     170.299     16.4328     60.8539
     673.600     80.0000     11.9874     60.3851     834.211     5.45912     5.96745     170.826     17.0994     58.4815
     673.700     145.000     11.9918     60.3851     833.905     5.45912     6.04391     169.849     15.7398     63.5334
     673.800     130.000     11.9962     60.3851     833.598     5.45912     6.00923     170.271     15.7668     63.4243
     673.900     140.000     11.9918     60.3884     833.905     2.04717     5.95798     169.662     15.5395     64.3519
     674.000     100.000     11.9874     60.3918     834.211    -1.36478     6.01869     168.810     16.1728     61.8321
     674.100     210.000     11.9918     60.3851     833.905     5.45912     5.98591     170.077     15.5071     64.4866
     674.200     180.000     11.9874     60.3851     834.211     5.45912     5.98404     170.144     15.7831     63.3591
     674.300     140.000     11.9874     60.3884     834.211     5.45912     5.95616     170.007     14.9339     66.9618
     674.400     165.000     11.9874     60.3918     834.211     5.45912     6.04897     169.928     14.9879     66.7203
     674.500     110.000     11.9918     60.3851     833.905     5.45912     5.98548     170.436     14.4854     69.0350
     674.600     175.000     11.9962     60.3851     833.598     5.45912     6.03349     171.956     15.9400     62.7352
     674.700     130.000     11.9962     60.3851     833.598     5.45912     5.94192     173.041     16.4057     60.9543
     674.800     100.000     11.9962     60.3851     833.598     5.45912     6.01413     170.921     15.9996     62.5017
     674.900     135.000     11.9874     60.3851     834.211    -1.36478     5.96286     171.654     17.0669     58.5930
     675.000     130.000     11.9962     60.3851     833.598     2.04717     6.01720     170.008     15.9725     62.6076
     675.100     240.000     11.9962     60.3784     833.598     5.45912     6.31596     169.354     17.1699     58.2414
     675.200     100.000     11.9962     60.3851     833.598     5.45912     5.91203     167.455     15.7993     63.2940
     675.300     255.000     11.9962     60.3851     833.598     5.45912     4.17827     172.569     16.7200     59.8087
     675.400     130.000     11.9962     60.3817     833.598     5.45912     6.28693     169.728     17.2296     58.0397
     675.500     225.000     12.0006     60.3784     833.293     5.45912     6.71254     165.344     17.6744     56.5790
     675.600     290.000     11.9962     60.3817     833.598     5.45912     5.91184     169.678     17.8643     55.9774
     675.700     180.000     12.0006     60.3784     833.293     5.45912     5.96254     169.813     16.5791     60.3169
     675.800     180.000     12.0050     60.3851     832.987    -1.36478     6.06216     169.715     16.1458     61.9358
     675.900     155.000     12.0094     60.3784     832.681    -1.36478     6.00933     170.062     17.3869     57.5147
     676.000     180.000     12.0138     60.3784     832.376    -1.36478     6.10761     169.938     17.0669     58.5930
     676.100     165.000     12.0094     60.3784     832.681     2.04717     5.97060     169.825     17.0994     58.4815
     676.200     280.000     12.0138     60.3784     832.376     5.45912     6.00136     169.270     18.0815     55.3052
     676.300     170.000     12.0138     60.3784     832.376     5.45912     6.03023     168.232     17.0127     58.7797
     676.400     225.000     12.0138     60.3717     832.376     5.45912     5.71260     169.943     17.7070     56.4750
     676.500     210.000     12.0094     60.3717     832.681     5.45912     6.54141     167.058     17.4737     57.2290
     676.600     190.000     12.0138     60.3650     832.376     5.45912     5.93965     168.913     17.5008     57.1403
     676.700     190.000     12.0094     60.3683     832.681     5.45912     6.09792     168.335     15.4368     64.7804
     676.800     135.000     12.0050     60.3717     832.987     5.45912     5.99435     168.672     15.1609     65.9590
     676.900     170.000     12.0094     60.3717     832.681     5.45912     5.58555     167.566     16.7525     59.6926
     677.000     170.000     12.0138     60.3784     832.376     5.45912     5.95820     169.100     16.1728     61.8321
     677.100     260.000     12.0050     60.3750     832.987     5.45912     5.96768     169.431     16.2324     61.6052
     677.200     190.000     12.0138     60.3784     832.376     5.45912     5.95054     169.078     14.5016     68.9579
     677.300     160.000     12.0050     60.3750     832.987     5.45912     5.92766     169.174     15.8101     63.2507
     677.400     170.000     12.0094     60.3717     832.681     5.45912     5.91522     170.117     14.8474     67.3518
     677.500     110.000     12.0138     60.3717     832.376     5.45912     5.92004     169.365     14.7015     68.0203
     677.600     80.0000     12.0094     60.3717     832.681     5.45912     5.92436     169.896     16.5791     60.3169
     677.700     175.000     12.0138     60.3717     832.376     5.45912     5.94451     169.312     16.7525     59.6926
