#------------------------------------------------------------
~VERSION INFORMATION
VERS.               2.0  :CWLS LOG ASCII STANDARD - VERSION 2.0
WRAP.                NO  :ONE LINE PER DEPTH STEP
#------------------------------------------------------------
~WELL INFORMATION
STRT.FT         1.10000  :FIRST INDEX VALUE
STOP.FT         1439.10  :LAST INDEX VALUE
STEP.FT        0.100000  :STEP
NULL.            -99999  :NULL VALUE
COMP.         Princeton  :COMP
WELL.                    :
FLD.                     :
LOC.                     :LOC
SRVC.      Driller/USGS  :SRVC
CTRY.                    :
STAT.                NJ  :STAT
CNTY.            Mercer  :CNTY
DATE.         8/20/2019  :DATE
UWI.    XXXXXXXXXXXXXXX  :UWI
#------------------------------------------------------------
~CURVE INFORMATION
DEPT.FT                  :DEPTH
GAM(NAT).CPS             :GAM(NAT)
RES(FL).OHM-M            :RES(FL)
TEMP.DEG_F               :TEMP
SP_COND_.US/CM           :SP COND 
SUSCEP.CGS_E-5           :SUSCEP
MAG_TILT.DEG             :Mag Tilt
MAG_AZI.DEG              :Mag Azi
COND.MMHO/M              :COND
RES.OHM-M                :RES
#------------------------------------------------------------
~OTHER
#------------------------------------------------------------
~A  DEPT[FT]    GAM(NAT)     RES(FL)        TEMP    SP_COND_      SUSCEP    MAG_TILT     MAG_AZI        COND         RES
# ...
     289.200     200.000     18.4348     57.6891     542.452     1574.96     4.39926     243.587    -99999.0    -99999.0
     289.300     90.0000     18.4084     57.6925     543.230     1568.13     4.37800     244.568    -99999.0    -99999.0
     289.400     170.000     18.3908     57.6891     543.751     1574.96     4.45468     249.842    -99999.0    -99999.0
     289.500     90.0000     18.3644     57.6925     544.533     1574.96     4.47393     250.894    -99999.0    -99999.0
     289.600     100.000     18.3732     57.6858     544.272     1574.96     4.47797     249.660    -99999.0    -99999.0
     289.700     120.000     18.3423     57.6925     545.187     1574.96     4.47594     243.930    -99999.0    -99999.0
     289.800     155.000     18.3115     57.6925     546.105     1578.37     4.47612     237.632    -99999.0    -99999.0
     289.900     100.000     18.2851     57.6891     546.894     1581.78     4.45164     230.714    -99999.0    -99999.0
     290.000     170.000     18.2543     57.6925     547.817     1581.78     4.49926     216.398    -99999.0    -99999.0
     290.100     140.000     18.2234     57.6992     548.744     1581.78     4.47063     203.056    -99999.0    -99999.0
     290.200     60.0000     18.1882     57.6925     549.807     1588.60     4.51092     193.083    -99999.0    -99999.0
     290.300     115.000     18.1618     57.6992     550.607     1595.43     4.45986     180.994    -99999.0    -99999.0
     290.400     160.000     18.1353     57.6958     551.409     1595.43     4.49675     169.766    -99999.0    -99999.0
     290.500     135.000     18.1001     57.6925     552.483     1605.66     4.48263     164.490    -99999.0    -99999.0
     290.600     150.000     18.0825     57.6925     553.021     1622.72     4.47559     161.739    -99999.0    -99999.0
     290.700     100.000     18.0341     57.6925     554.506     1636.37     4.49525     170.965    -99999.0    -99999.0
     290.800     110.000     17.9944     57.6992     555.728     1629.55     4.48650     172.236    -99999.0    -99999.0
     290.900     60.0000     17.9944     57.6958     555.728     1622.72     4.46194     162.501    -99999.0    -99999.0
     291.000     115.000     17.9504     57.6992     557.091     1622.72     4.47824     157.430    -99999.0    -99999.0
     291.100     80.0000     17.9416     57.6992     557.365     1609.08     4.46788     146.881    -99999.0    -99999.0
     291.200     75.0000     17.9416     57.7059     557.365     1605.66     4.49060     137.746    -99999.0    -99999.0
     291.300     70.0000     17.8975     57.7092     558.736     1595.43     4.47293     134.540    -99999.0    -99999.0
     291.400     110.000     17.8799     57.7059     559.287     1581.78     4.42522     138.119    -99999.0    -99999.0
     291.500     130.000     17.8535     57.7126     560.114     1564.72     4.45864     137.707    -99999.0    -99999.0
     291.600     30.0000     17.7566     57.7126     563.171     1540.84     4.47233     128.118    -99999.0    -99999.0
     291.700     40.0000     17.8095     57.7059     561.500     1534.01     4.49079     113.049    -99999.0    -99999.0
     291.800     90.0000     17.7478     57.7059     563.450     1534.01     4.47616     104.383    -99999.0    -99999.0
     291.900     125.000     17.7126     57.7059     564.571     1513.54     4.50035     95.6616    -99999.0    -99999.0
     292.000     60.0000     17.6817     57.7059     565.555     1493.07     4.51756     92.4199    -99999.0    -99999.0
     292.100     100.000     17.6597     57.7059     566.260     1472.60     4.54030     91.8292    -99999.0    -99999.0
     292.200     70.0000     17.6245     57.7025     567.392     1445.30     4.59018     92.0474    -99999.0    -99999.0
     292.300     50.0000     17.6113     57.7059     567.818     1418.01     4.59556     94.5036    -99999.0    -99999.0
     292.400     50.0000     17.5716     57.7025     569.099     1418.01     4.61023     92.6786    -99999.0    -99999.0
     292.500     50.0000     17.5408     57.7059     570.099     1404.36     4.60309     89.5772    -99999.0    -99999.0
     292.600     80.0000     17.5188     57.7059     570.816     1411.18     4.59863     88.6119    -99999.0    -99999.0
     292.700     80.0000     17.4924     57.7025     571.678     1404.36     4.60623     94.2464    -99999.0    -99999.0
     292.800     105.000     17.4571     57.7059     572.832     1397.53     4.63532     105.640    -99999.0    -99999.0
     292.900     100.000     17.4395     57.7025     573.410     1404.36     4.62335     142.532    -99999.0    -99999.0
     293.000     140.000     17.4219     57.7059     573.990     1404.36     4.65450     186.304    -99999.0    -99999.0
     293.100     175.000     17.3779     57.6992     575.445     1407.77     4.62789     200.550    -99999.0    -99999.0
     293.200     180.000     17.3426     57.7059     576.614     1411.18     4.67435     211.171    -99999.0    -99999.0
     293.300     150.000     17.3250     57.6992     577.200     1424.83     4.65906     212.816    -99999.0    -99999.0
     293.400     190.000     17.3074     57.7025     577.788     1431.65     4.61673     212.854    -99999.0    -99999.0
     293.500     200.000     17.2766     57.7059     578.819     1445.30     4.64613     214.666    -99999.0    -99999.0
     293.600     110.000     17.2546     57.7025     579.557     1445.30     4.66253     218.246    -99999.0    -99999.0
     293.700     160.000     17.2105     57.7059     581.040     1452.13     4.70487     221.024    -99999.0    -99999.0
     293.800     115.000     17.1753     57.7126     582.232     1458.95     4.65666     214.779    -99999.0    -99999.0
     293.900     40.0000     17.1709     57.7126     582.382     1452.13     4.64073     167.418    -99999.0    -99999.0
     294.000     150.000     17.1577     57.7126     582.830     1465.77     4.65910     108.446    -99999.0    -99999.0
     294.100     100.000     17.1224     57.7126     584.029     1486.25     4.67754     82.2862    -99999.0    -99999.0
     294.200     110.000     17.0872     57.7126     585.233     1479.42     4.66058     77.3338    -99999.0    -99999.0
     294.300     130.000     17.0784     57.7126     585.535     1472.60     4.64612     77.9839    -99999.0    -99999.0
     294.400     110.000     17.0388     57.7059     586.897     1472.60     4.67317     70.1421    -99999.0    -99999.0
     294.500     80.0000     16.9991     57.7126     588.266     1472.60     4.74451     63.0378    -99999.0    -99999.0
     294.600     80.0000     16.9771     57.7126     589.029     1479.42     4.68143     71.3519    -99999.0    -99999.0
     294.700     55.0000     16.9375     57.7126     590.407     1489.66     4.63875     79.1585    -99999.0    -99999.0
     294.800     130.000     16.9331     57.7092     590.561     1486.25     4.66412     89.4107    -99999.0    -99999.0
     294.900     135.000     16.9022     57.7126     591.638     1486.25     4.72311     93.8085    -99999.0    -99999.0
     295.000     100.000     16.8934     57.7092     591.946     1486.25     4.67170     106.818    -99999.0    -99999.0
     295.100     120.000     16.8626     57.7059     593.029     1499.89     4.64751     159.019    -99999.0    -99999.0
     295.200     110.000     16.8406     57.7092     593.804     1499.89     4.62372     173.888    -99999.0    -99999.0
     295.300     100.000     16.8274     57.7126     594.270     1493.07     4.65689     174.852    -99999.0    -99999.0
     295.400     145.000     16.8142     57.7193     594.737     1486.25     4.78313     173.376    -99999.0    -99999.0
     295.500     170.000     16.7877     57.7193     595.673     1458.95     4.62798     170.778    -99999.0    -99999.0
     295.600     95.0000     16.7437     57.7193     597.240     1435.07     4.69518     171.623    -99999.0    -99999.0
     295.700     170.000     16.7349     57.7193     597.554     1418.01     4.68697     173.943    -99999.0    -99999.0
     295.800     70.0000     16.7041     57.7126     598.657     1418.01     4.69110     177.060    -99999.0    -99999.0
