#------------------------------------------------------------
~VERSION INFORMATION
VERS.               2.0  :CWLS LOG ASCII STANDARD - VERSION 2.0
WRAP.                NO  :ONE LINE PER DEPTH STEP
#------------------------------------------------------------
~WELL INFORMATION
STRT.FT         1.10000  :FIRST INDEX VALUE
STOP.FT         1439.10  :LAST INDEX VALUE
STEP.FT        0.100000  :STEP
NULL.            -99999  :NULL VALUE
COMP.         Princeton  :COMP
WELL.                    :
FLD.                     :
LOC.                     :LOC
SRVC.      Driller/USGS  :SRVC
CTRY.                    :
STAT.                NJ  :STAT
CNTY.            Mercer  :CNTY
DATE.         8/20/2019  :DATE
UWI.    XXXXXXXXXXXXXXX  :UWI
#------------------------------------------------------------
~CURVE INFORMATION
DEPT.FT                  :DEPTH
GAM(NAT).CPS             :GAM(NAT)
RES(FL).OHM-M            :RES(FL)
TEMP.DEG_F               :TEMP
SP_COND_.US/CM           :SP COND 
SUSCEP.CGS_E-5           :SUSCEP
MAG_TILT.DEG             :Mag Tilt
MAG_AZI.DEG              :Mag Azi
COND.MMHO/M              :COND
RES.OHM-M                :RES
#------------------------------------------------------------
~OTHER
#------------------------------------------------------------
~A  DEPT[FT]    GAM(NAT)     RES(FL)        TEMP    SP_COND_      SUSCEP    MAG_TILT     MAG_AZI        COND         RES
# ...
     94.9000     90.0000     47.6157     73.4475     210.015     1366.83    0.344318     57.6884    -99999.0    -99999.0
     95.0000     50.0313     47.6422     73.4441     209.898     1383.89    0.248058     51.4851    -99999.0    -99999.0
     95.1000     74.9650     47.6862     73.4406     209.704     1404.36    0.252051     43.6809    -99999.0    -99999.0
     95.2000     40.0000     47.7126     73.4337     209.588     1421.42    0.203516     22.8280    -99999.0    -99999.0
     95.3000     85.0000     47.6201     73.4268     209.995     1452.13    0.188051     355.046    -99999.0    -99999.0
     95.4000     70.0000     47.5981     73.4268     210.093     1465.77    0.112039     329.948    -99999.0    -99999.0
     95.5000     70.0160     47.6157     73.4199     210.015     1472.60    0.101209     324.985    -99999.0    -99999.0
     95.6000     85.0000     47.6377     73.4130     209.918     1482.83   0.0846309     326.679    -99999.0    -99999.0
     95.7000     40.0000     47.6597     73.4165     209.821     1472.60    0.103788     336.364    -99999.0    -99999.0
     95.8000     65.0000     47.6333     73.4061     209.937     1472.60   0.0642043     356.543    -99999.0    -99999.0
     95.9000     40.0225     47.5980     73.4130     210.093     1458.95   0.0726831     345.985    -99999.0    -99999.0
     96.0000     60.0000     47.5893     73.4061     210.131     1448.71   0.0989404     18.5989    -99999.0    -99999.0
     96.1000     120.000     47.5628     73.3923     210.248     1431.65    0.117397     45.0168    -99999.0    -99999.0
     96.2000     110.000     47.6157     73.3923     210.015     1411.18    0.175605     47.5592    -99999.0    -99999.0
     96.3000     115.081     47.5583     73.3854     210.268     1390.71    0.125231     55.0877    -99999.0    -99999.0
     96.4000     179.925     47.4924     73.3819     210.560     1373.65    0.147379     63.7360    -99999.0    -99999.0
     96.5000     105.000     47.5276     73.3716     210.404     1363.42    0.197440     73.3354    -99999.0    -99999.0
     96.6000     70.0000     47.5012     73.3716     210.521     1349.77    0.228728     52.7889    -99999.0    -99999.0
     96.7000     90.0000     47.5100     73.3647     210.482     1353.18    0.247462     29.8596    -99999.0    -99999.0
     96.8000     80.0213     47.5188     73.3647     210.443     1336.12    0.242738     30.7949    -99999.0    -99999.0
     96.9000     100.000     47.5188     73.3543     210.443     1329.30    0.259268     32.4860    -99999.0    -99999.0
     97.0000     50.0000     47.5012     73.3509     210.521     1325.88    0.191384     37.4590    -99999.0    -99999.0
     97.1000     90.0000     47.5452     73.3440     210.326     1342.94    0.190104     59.2933    -99999.0    -99999.0
     97.2000     119.929     47.5936     73.3371     210.112     1342.94    0.163556     74.6958    -99999.0    -99999.0
     97.3000     60.0000     47.5628     73.3371     210.248     1356.59    0.164224     78.1074    -99999.0    -99999.0
     97.4000     120.000     47.5276     73.3233     210.404     1349.77   0.0872021     67.7610    -99999.0    -99999.0
     97.5000     90.0000     47.5496     73.3233     210.307     1329.30   0.0549939     6.87772    -99999.0    -99999.0
     97.6000     95.0178     47.4398     73.3163     210.794     1315.65   0.0740490     18.6674    -99999.0    -99999.0
     97.7000     109.960     47.6420     73.3026     209.899     1305.41   0.0989404     59.7547    -99999.0    -99999.0
     97.8000     70.0000     47.5672     73.3095     210.229     1254.23    0.157882     93.9612    -99999.0    -99999.0
     97.9000     70.0000     47.5452     73.2991     210.326     1220.11    0.102889     101.121    -99999.0    -99999.0
     98.0000     30.0000     47.5496     73.2887     210.307     1226.94    0.149290     103.521    -99999.0    -99999.0
     98.1000     69.9894     47.5364     73.2887     210.365     1302.00    0.169680     114.631    -99999.0    -99999.0
     98.2000     60.0000     47.4836     73.2818     210.599     1370.24    0.178246     261.676    -99999.0    -99999.0
     98.3000     75.0000     47.4968     73.2749     210.541     1329.30    0.178600     243.054    -99999.0    -99999.0
     98.4000     70.0000     47.5188     73.2715     210.443     1332.71    0.241680     208.395    -99999.0    -99999.0
     98.5000     40.0225     47.4703     73.2680     210.658     1288.35    0.163523     154.861    -99999.0    -99999.0
     98.6000     60.0000     47.4483     73.2611     210.756     1315.65    0.226185     153.500    -99999.0    -99999.0
     98.7000     110.000     47.4351     73.2577     210.814     1315.65    0.230411     141.740    -99999.0    -99999.0
     98.8000     50.0000     47.4659     73.2542     210.677     1305.41    0.341546     148.737    -99999.0    -99999.0
     98.9000     60.0297     47.4483     73.2473     210.756     1315.65    0.248480     159.849    -99999.0    -99999.0
     99.0000     85.0000     47.4527     73.2404     210.736     1308.82    0.295012     169.696    -99999.0    -99999.0
     99.1000     80.0000     47.3691     73.2404     211.108     1305.41    0.161215     166.878    -99999.0    -99999.0
     99.2000     95.0000     47.4131     73.2335     210.912     1329.30    0.128572     197.053    -99999.0    -99999.0
     99.3000     80.0000     47.5364     73.2266     210.365     1342.94   0.0774262     174.594    -99999.0    -99999.0
     99.4000     60.0213     47.5099     73.2301     210.482     1349.77    0.147073     211.682    -99999.0    -99999.0
     99.5000     80.0000     47.4748     73.2197     210.638     1377.06   0.0543092     176.668    -99999.0    -99999.0
     99.6000     100.000     47.4836     73.2163     210.599     1383.89   0.0317997     152.786    -99999.0    -99999.0
     99.7000     95.0000     47.4703     73.2128     210.658     1377.06   0.0236147     329.898    -99999.0    -99999.0
     99.8000     30.0338     47.3515     73.2059     211.187     1370.24   0.0994767     127.647    -99999.0    -99999.0
     99.9000     60.0000     47.3779     73.2059     211.069     1370.24    0.110531     101.427    -99999.0    -99999.0
     100.000     65.0000     47.3514     73.1921     211.187     1363.42    0.154117     106.582    -99999.0    -99999.0
     100.100     30.0000     47.3426     73.1921     211.226     1349.77    0.116062     107.296    -99999.0    -99999.0
     100.200     74.9437     47.3778     73.1852     211.069     1332.71    0.137170     127.252    -99999.0    -99999.0
     100.300     30.0000     47.3426     73.1817     211.226     1315.65    0.150141     161.408    -99999.0    -99999.0
     100.400     30.0000     47.3691     73.1714     211.108     1308.82    0.231668     189.699    -99999.0    -99999.0
     100.500     90.0000     47.4615     73.1645     210.697     1305.41    0.214564     189.286    -99999.0    -99999.0
     100.600     30.0125     47.4218     73.1610     210.873     1288.35    0.259401     190.380    -99999.0    -99999.0
     100.700     40.0266     47.3735     73.1576     211.089     1281.53    0.222415     211.406    -99999.0    -99999.0
     100.800     65.0000     47.4043     73.1438     210.951     1274.70    0.238063     195.488    -99999.0    -99999.0
     100.900     100.000     47.3250     73.1403     211.305     1278.12    0.252563     196.003    -99999.0    -99999.0
     101.000     65.0000     47.3779     73.1369     211.069     1281.53    0.235166     190.096    -99999.0    -99999.0
     101.100     69.9947     47.3690     73.1300     211.108     1288.35    0.205782     172.656    -99999.0    -99999.0
     101.200     65.0000     47.3338     73.1300     211.265     1302.00    0.159151     209.952    -99999.0    -99999.0
     101.300     50.0000     47.2810     73.1231     211.502     1329.30    0.148101     224.626    -99999.0    -99999.0
     101.400     70.0000     47.3691     73.1162     211.108     1336.12    0.129055     195.303    -99999.0    -99999.0
     101.500     80.0238     47.2766     73.1093     211.521     1356.59    0.149805     212.272    -99999.0    -99999.0
