#------------------------------------------------------------
~VERSION INFORMATION
VERS.               2.0  :CWLS LOG ASCII STANDARD - VERSION 2.0
WRAP.                NO  :ONE LINE PER DEPTH STEP
#------------------------------------------------------------
~WELL INFORMATION
STRT.FT         1.10000  :FIRST INDEX VALUE
STOP.FT         1439.10  :LAST INDEX VALUE
STEP.FT        0.100000  :STEP
NULL.            -99999  :NULL VALUE
COMP.         Princeton  :COMP
WELL.                    :
FLD.                     :
LOC.                     :LOC
SRVC.      Driller/USGS  :SRVC
CTRY.                    :
STAT.                NJ  :STAT
CNTY.            Mercer  :CNTY
DATE.         8/20/2019  :DATE
UWI.    XXXXXXXXXXXXXXX  :UWI
#------------------------------------------------------------
~CURVE INFORMATION
DEPT.FT                  :DEPTH
GAM(NAT).CPS             :GAM(NAT)
RES(FL).OHM-M            :RES(FL)
TEMP.DEG_F               :TEMP
SP_COND_.US/CM           :SP COND 
SUSCEP.CGS_E-5           :SUSCEP
MAG_TILT.DEG             :Mag Tilt
MAG_AZI.DEG              :Mag Azi
COND.MMHO/M              :COND
RES.OHM-M                :RES
#------------------------------------------------------------
~OTHER
#------------------------------------------------------------
~A  DEPT[FT]    GAM(NAT)     RES(FL)        TEMP    SP_COND_      SUSCEP    MAG_TILT     MAG_AZI        COND         RES
# ...
     195.400     80.0000     11.7804     57.3710     848.869     1704.61     2.94289     68.1643    -99999.0    -99999.0
     195.500     70.0000     11.7848     57.3710     848.551     1694.37     2.93839     66.1129    -99999.0    -99999.0
     195.600     65.0000     11.7936     57.3676     847.918     1670.49     2.94517     64.0287    -99999.0    -99999.0
     195.700     30.0000     11.7936     57.3643     847.918     1663.67     2.89474     62.5799    -99999.0    -99999.0
     195.800     110.000     11.8024     57.3710     847.285     1650.02     2.93273     63.1785    -99999.0    -99999.0
     195.900     55.0000     11.8024     57.3710     847.285     1660.25     2.93832     59.8581    -99999.0    -99999.0
     196.000     80.0000     11.8112     57.3710     846.653     1684.14     2.91915     61.2744    -99999.0    -99999.0
     196.100     100.000     11.8112     57.3643     846.653     1697.79     2.90531     65.5119    -99999.0    -99999.0
     196.200     100.000     11.8112     57.3710     846.653     1694.37     2.93613     68.6739    -99999.0    -99999.0
     196.300     80.0000     11.8332     57.3643     845.077     1690.96     2.91778     67.8334    -99999.0    -99999.0
     196.400     85.0000     11.8376     57.3643     844.763     1677.31     2.91643     68.5642    -99999.0    -99999.0
     196.500     30.0000     11.8553     57.3643     843.508     1677.31     2.88621     70.2667    -99999.0    -99999.0
     196.600     80.0000     11.8641     57.3710     842.882     1667.08     2.91731     74.6951    -99999.0    -99999.0
     196.700     70.0000     11.8729     57.3676     842.256     1656.84     2.86520     81.6774    -99999.0    -99999.0
     196.800     110.000     11.8729     57.3710     842.256     1650.02     2.90400     77.6685    -99999.0    -99999.0
     196.900     80.0000     11.8949     57.3777     840.697     1656.84     2.89219     78.2896    -99999.0    -99999.0
     197.000     90.0000     11.8993     57.3743     840.386     1650.02     2.87652     80.1276    -99999.0    -99999.0
     197.100     90.0000     11.9213     57.3777     838.834     1663.67     2.85949     81.5947    -99999.0    -99999.0
     197.200     40.0000     11.9345     57.3777     837.905     1663.67     2.88382     84.9798    -99999.0    -99999.0
     197.300     80.0000     11.9433     57.3777     837.287     1653.43     2.89103     84.9894    -99999.0    -99999.0
     197.400     100.000     11.9654     57.3844     835.746     1656.84     2.87099     82.6993    -99999.0    -99999.0
     197.500     60.0000     11.9786     57.3810     834.824     1663.67     2.85257     72.5731    -99999.0    -99999.0
     197.600     95.0000     12.0050     57.3777     832.987     1663.67     2.85549     58.2672    -99999.0    -99999.0
     197.700     100.000     12.0138     57.3844     832.376     1663.67     2.87264     44.6119    -99999.0    -99999.0
     197.800     85.0000     12.0358     57.3810     830.853     1663.67     2.84692     30.7472    -99999.0    -99999.0
     197.900     40.0000     12.0666     57.3844     828.731     1656.84     2.84560     14.0436    -99999.0    -99999.0
     198.000     40.0000     12.0755     57.3844     828.126     1643.19     2.83112     2.46729    -99999.0    -99999.0
     198.100     50.0000     12.0975     57.3844     826.619     1615.90     2.84560     355.141    -99999.0    -99999.0
     198.200     50.0000     12.1019     57.3810     826.318     1602.25     2.83813     336.043    -99999.0    -99999.0
     198.300     50.0000     12.1327     57.3844     824.218     1588.60     2.88357     275.873    -99999.0    -99999.0
     198.400     40.0000     12.1547     57.3844     822.725     1574.96     2.87740     253.556    -99999.0    -99999.0
     198.500     95.0000     12.1723     57.3810     821.535     1650.02     2.85289     276.011    -99999.0    -99999.0
     198.600     40.0000     12.1767     57.3844     821.237     1684.14     2.85226     230.844    -99999.0    -99999.0
     198.700     30.0000     12.1900     57.3844     820.347     1680.73     2.85040     238.550    -99999.0    -99999.0
     198.800     35.0000     12.2076     57.3844     819.164     1615.90     2.86937     214.432    -99999.0    -99999.0
     198.900     40.0000     12.2252     57.3911     817.983     1465.77     2.88390     186.592    -99999.0    -99999.0
     199.000     50.0000     12.2340     57.3911     817.394     1513.54     2.84247     178.326    -99999.0    -99999.0
     199.100     50.0000     12.2516     57.3911     816.219     1370.24     2.89217     174.507    -99999.0    -99999.0
     199.200     100.000     12.2692     57.3978     815.047     1377.06     2.85545     173.058    -99999.0    -99999.0
     199.300     35.0000     12.2824     57.3978     814.170     1390.71     2.88787     172.555    -99999.0    -99999.0
     199.400     50.0000     12.2957     57.3911     813.295     1400.95     2.85432     178.105    -99999.0    -99999.0
     199.500     75.0000     12.3177     57.3911     811.842     1424.83     2.90597     191.073    -99999.0    -99999.0
     199.600     80.0000     12.3397     57.3911     810.393     1418.01     2.82631     222.063    -99999.0    -99999.0
     199.700     60.0000     12.3397     57.3877     810.393     1414.59     2.79368     258.067    -99999.0    -99999.0
     199.800     65.0000     12.3529     57.3844     809.526     1404.36     2.84367     263.781    -99999.0    -99999.0
     199.900     30.0000     12.3573     57.3911     809.238     1397.53     2.90466     274.780    -99999.0    -99999.0
     200.000     65.0000     12.3705     57.3911     808.373     1404.36     2.86965     278.177    -99999.0    -99999.0
     200.100     60.0000     12.3749     57.3911     808.086     1407.77     2.90856     285.726    -99999.0    -99999.0
     200.200     80.0000     12.3837     57.3944     807.511     1411.18     2.86566     287.754    -99999.0    -99999.0
     200.300     100.000     12.4058     57.3978     806.078     1411.18     2.87472     288.422    -99999.0    -99999.0
     200.400     60.0000     12.4278     57.3978     804.649     1421.42     2.87027     302.272    -99999.0    -99999.0
     200.500     70.0000     12.4410     57.3978     803.795     1411.18     2.86604     39.6531    -99999.0    -99999.0
     200.600     70.0000     12.4630     57.3978     802.375     1418.01     2.85736     126.296    -99999.0    -99999.0
     200.700     70.0000     12.4806     57.4011     801.242     1411.18     2.85394     144.035    -99999.0    -99999.0
     200.800     80.0000     12.5115     57.3978     799.268     1390.71     2.82265     142.795    -99999.0    -99999.0
     200.900     60.0000     12.5335     57.3978     797.864     1377.06     2.82265     136.342    -99999.0    -99999.0
     201.000     90.0000     12.5511     57.3978     796.744     1370.24     2.81376     131.637    -99999.0    -99999.0
     201.100     110.000     12.5599     57.3911     796.185     1363.42     2.81358     129.032    -99999.0    -99999.0
     201.200     65.0000     12.5687     57.3944     795.627     1356.59     2.80437     125.378    -99999.0    -99999.0
     201.300     40.0000     12.5951     57.3978     793.958     1349.77     2.79570     129.891    -99999.0    -99999.0
     201.400     30.0000     12.5951     57.3978     793.958     1356.59     2.79579     145.187    -99999.0    -99999.0
     201.500     100.000     12.6127     57.3978     792.849     1356.59     2.76980     165.908    -99999.0    -99999.0
     201.600     70.0000     12.6127     57.3978     792.849     1363.42     2.77836     211.313    -99999.0    -99999.0
     201.700     105.000     12.6392     57.3978     791.191     1370.24     2.83980     303.568    -99999.0    -99999.0
     201.800     130.000     12.6480     57.3978     790.640     1377.06     2.82777     303.552    -99999.0    -99999.0
     201.900     110.000     12.6568     57.3978     790.090     1394.12     2.82484     295.382    -99999.0    -99999.0
     202.000     105.000     12.6568     57.4045     790.090     1397.53     2.81357     296.158    -99999.0    -99999.0
