#------------------------------------------------------------
~VERSION INFORMATION
VERS.               2.0  :CWLS LOG ASCII STANDARD - VERSION 2.0
WRAP.                NO  :ONE LINE PER DEPTH STEP
#------------------------------------------------------------
~WELL INFORMATION
STRT.FT         1.10000  :FIRST INDEX VALUE
STOP.FT         1439.10  :LAST INDEX VALUE
STEP.FT        0.100000  :STEP
NULL.            -99999  :NULL VALUE
COMP.         Princeton  :COMP
WELL.                    :
FLD.                     :
LOC.                     :LOC
SRVC.      Driller/USGS  :SRVC
CTRY.                    :
STAT.                NJ  :STAT
CNTY.            Mercer  :CNTY
DATE.         8/20/2019  :DATE
UWI.    XXXXXXXXXXXXXXX  :UWI
#------------------------------------------------------------
~CURVE INFORMATION
DEPT.FT                  :DEPTH
GAM(NAT).CPS             :GAM(NAT)
RES(FL).OHM-M            :RES(FL)
TEMP.DEG_F               :TEMP
SP_COND_.US/CM           :SP COND 
SUSCEP.CGS_E-5           :SUSCEP
MAG_TILT.DEG             :Mag Tilt
MAG_AZI.DEG              :Mag Azi
COND.MMHO/M              :COND
RES.OHM-M                :RES
#------------------------------------------------------------
~OTHER
#------------------------------------------------------------
~A  DEPT[FT]    GAM(NAT)     RES(FL)        TEMP    SP_COND_      SUSCEP    MAG_TILT     MAG_AZI        COND         RES
# ...
     577.300     200.000     11.0361     60.3985     906.116     5.45912     5.82197     161.990     15.6694     63.8186
     577.400     230.000     11.0449     60.3985     905.394     5.45912     5.81676     161.948     17.4574     57.2824
     577.500     270.000     11.0625     60.3985     903.952     5.45912     5.81966     162.163     17.3163     57.7489
     577.600     260.000     11.0757     60.4052     902.873     5.45912     5.79722     161.419     17.9783     55.6225
     577.700     245.000     11.0890     60.3985     901.798     5.45912     5.95198     162.814     15.8101     63.2507
     577.800     270.000     11.0890     60.3985     901.798     5.45912     6.09311     162.694     15.8426     63.1210
     577.900     260.000     11.1066     60.3985     900.367     5.45912     5.97329     162.257     16.5899     60.2775
     578.000     260.000     11.1022     60.3951     900.725     5.45912     5.28938     164.460     17.3163     57.7489
     578.100     300.000     11.1154     60.3985     899.654     5.45912     6.78392     163.097     15.2042     65.7713
     578.200     340.000     11.1154     60.3985     899.654     5.45912     5.76250     163.342     15.5828     64.1732
     578.300     320.000     11.1242     60.3985     898.942     5.45912     5.77521     160.834     16.7525     59.6926
     578.400     310.000     11.1330     60.4018     898.230     5.45912     5.91269     160.630     16.9368     59.0431
     578.500     230.000     11.1374     60.3985     897.875     5.45912     5.96988     160.840     16.6224     60.1596
     578.600     285.000     11.1418     60.4052     897.520     5.45912     5.90423     161.898     17.0398     58.6862
     578.700     230.000     11.1506     60.4018     896.811     5.45912     5.87817     163.007     18.5865     53.8024
     578.800     320.000     11.1594     60.4052     896.104     5.45912     5.89779     163.598     16.7959     59.5385
     578.900     300.000     11.1682     60.4052     895.397     5.45912     6.21122     162.786     15.7831     63.3591
     579.000     335.000     11.1770     60.4052     894.691     5.45912     4.48418     163.571     15.8426     63.1210
     579.100     310.000     11.1814     60.4052     894.339     5.45912     6.49046     161.098     17.6635     56.6138
     579.200     335.000     11.1770     60.4052     894.691     5.45912     5.68175     162.893     18.0380     55.4384
     579.300     390.000     11.1770     60.4052     894.691    -1.36478     5.13808     161.198     16.6224     60.1596
     579.400     300.000     11.1991     60.4052     892.932     5.45912     6.13936     159.872     15.7560     63.4679
     579.500     410.000     11.1947     60.4052     893.283     5.45912     5.93230     162.539     16.8501     59.3470
     579.600     260.000     11.2079     60.4052     892.230     5.45912     5.90674     162.092     16.4491     60.7937
     579.700     350.000     11.2035     60.4052     892.581     5.45912     5.93633     161.849     15.9725     62.6076
     579.800     440.000     11.2123     60.4052     891.880     5.45912     5.72373     161.558     15.7235     63.5990
     579.900     280.000     11.2211     60.4052     891.180     5.45912     5.94012     162.609     16.1024     62.1024
     580.000     280.000     11.2211     60.4018     891.180     5.45912     5.95141     163.164     16.9259     59.0809
     580.100     310.000     11.2299     60.3985     890.481     5.45912     5.89306     161.023     16.3299     61.2374
     580.200     350.000     11.2211     60.4018     891.180     2.04717     6.00840     162.075     17.1970     58.1496
     580.300     390.000     11.2299     60.4052     890.481    -1.36478     5.42225     162.741     18.2715     54.7300
     580.400     270.000     11.2255     60.4018     890.830     2.04717     6.16239     161.921     18.0978     55.2555
     580.500     315.000     11.2211     60.4052     891.180     5.45912     5.79352     162.971     18.0815     55.3052
     580.600     280.000     11.2299     60.3985     890.481     5.45912     5.86539     161.773     17.8372     56.0626
     580.700     285.000     11.2299     60.3985     890.481     5.45912     5.84734     162.525     18.6191     53.7082
     580.800     320.000     11.2387     60.4018     889.783     5.45912     6.02883     163.023     18.7332     53.3811
     580.900     325.000     11.2387     60.3985     889.783    -1.36478     5.05345     160.419     16.1891     61.7700
     581.000     220.000     11.2387     60.4018     889.783     2.04717     7.91634     158.161     18.0109     55.5219
     581.100     230.000     11.2387     60.4052     889.783     5.45912     5.24754     160.318     18.7495     53.3347
     581.200     250.000     11.2563     60.4052     888.390     5.45912     5.29615     154.777     17.3706     57.5686
     581.300     160.000     11.2475     60.4052     889.086     5.45912     6.95324     153.764     16.3624     61.1158
     581.400     175.000     11.2563     60.4119     888.390     5.45912     5.43410     155.532     18.7930     53.2113
     581.500     280.000     11.2563     60.4052     888.390     5.45912     5.02888     167.144     17.8372     56.0626
     581.600     250.000     11.2651     60.4052     887.696     2.04717     7.73246     164.766     17.2404     58.0032
     581.700     280.000     11.2651     60.4085     887.696    -1.36478     6.17507     164.805     16.6224     60.1596
     581.800     180.000     11.2607     60.4052     888.043    -1.36478     6.29691     162.840     15.4097     64.8941
     581.900     170.000     11.2651     60.4052     887.696     5.45912     6.24240     163.256     17.5767     56.8934
     582.000     130.000     11.2695     60.4052     887.349     5.45912     6.59667     160.487     17.0561     58.6302
     582.100     180.000     11.2739     60.3985     887.002     5.45912     6.15614     160.072     18.3258     54.5678
     582.200     110.000     11.2739     60.4052     887.002     5.45912     6.09140     161.862     17.1862     58.1862
     582.300     170.000     11.2739     60.3985     887.002     5.45912     6.08035     161.608     18.1846     54.9915
     582.400     70.0000     11.2739     60.4018     887.002     5.45912     6.07420     161.742     18.0978     55.2555
     582.500     150.000     11.2827     60.3985     886.310     5.45912     6.03791     161.916     17.6473     56.6660
     582.600     100.000     11.2783     60.3985     886.656     5.45912     5.96942     162.380     17.9783     55.6225
     582.700     70.0000     11.2827     60.3918     886.310     2.04717     5.90322     162.378     18.8800     52.9662
     582.800     140.000     11.2871     60.3951     885.964    -1.36478     5.97015     161.442     17.8372     56.0626
     582.900     100.000     11.2915     60.3985     885.618     5.45912     5.91800     163.110     18.4453     54.2143
     583.000     90.0000     11.2827     60.3918     886.310     5.45912     5.87807     162.130     19.0539     52.4828
     583.100     75.0000     11.2959     60.3985     885.273    -1.36478     5.81231     162.939     18.1249     55.1727
     583.200     130.000     11.2915     60.3918     885.618    -1.36478     5.78481     162.351     17.6635     56.6138
     583.300     115.000     11.3092     60.3985     884.239     5.45912     5.79190     162.106     18.1412     55.1232
     583.400     140.000     11.3092     60.3918     884.239     5.45912     5.72665     161.683     19.9240     50.1906
     583.500     105.000     11.3092     60.3918     884.239     5.45912     5.86628     161.351     18.1846     54.9915
     583.600     120.000     11.3180     60.3985     883.551    -1.36478     5.80891     161.839     17.8372     56.0626
     583.700     95.0000     11.3180     60.3918     883.551    -1.36478     5.70514     162.180     16.9693     58.9299
     583.800     130.000     11.3268     60.3851     882.864     5.45912     5.89761     161.460     15.0312     66.5284
     583.900     70.0000     11.3224     60.3851     883.207     5.45912     5.82213     161.747     17.3163     57.7489
