#------------------------------------------------------------
~VERSION INFORMATION
VERS.               2.0  :CWLS LOG ASCII STANDARD - VERSION 2.0
WRAP.                NO  :ONE LINE PER DEPTH STEP
#------------------------------------------------------------
~WELL INFORMATION
STRT.FT         1.10000  :FIRST INDEX VALUE
STOP.FT         1439.10  :LAST INDEX VALUE
STEP.FT        0.100000  :STEP
NULL.            -99999  :NULL VALUE
COMP.         Princeton  :COMP
WELL.                    :
FLD.                     :
LOC.                     :LOC
SRVC.      Driller/USGS  :SRVC
CTRY.                    :
STAT.                NJ  :STAT
CNTY.            Mercer  :CNTY
DATE.         8/20/2019  :DATE
UWI.    XXXXXXXXXXXXXXX  :UWI
#------------------------------------------------------------
~CURVE INFORMATION
DEPT.FT                  :DEPTH
GAM(NAT).CPS             :GAM(NAT)
RES(FL).OHM-M            :RES(FL)
TEMP.DEG_F               :TEMP
SP_COND_.US/CM           :SP COND 
SUSCEP.CGS_E-5           :SUSCEP
MAG_TILT.DEG             :Mag Tilt
MAG_AZI.DEG              :Mag Azi
COND.MMHO/M              :COND
RES.OHM-M                :RES
#------------------------------------------------------------
~OTHER
#------------------------------------------------------------
~A  DEPT[FT]    GAM(NAT)     RES(FL)        TEMP    SP_COND_      SUSCEP    MAG_TILT     MAG_AZI        COND         RES
# ...
     1146.80     180.000     8.36729     63.8371     1195.13     5.45912     8.37764     176.456     16.8934     59.1947
     1146.90     240.000     8.36729     63.8506     1195.13     5.45912     8.32923     176.057     16.6766     59.9642
     1147.00     260.000     8.36729     63.8640     1195.13     5.45912     8.35376     175.949     17.2404     58.0032
     1147.10     170.000     8.36729     63.8809     1195.13     5.45912     8.40442     175.354     17.5008     57.1403
     1147.20     110.000     8.35849     63.8910     1196.39     5.45912     8.25566     175.648     15.8209     63.2074
     1147.30     170.000     8.36289     63.8943     1195.76     2.04717     8.42719     174.928     14.4260     69.3193
     1147.40     160.000     8.36729     63.9044     1195.13     5.45912     8.34718     175.386     15.6802     63.7746
     1147.50     145.000     8.35849     63.9011     1196.39     2.04717     8.37247     175.636     15.0312     66.5284
     1147.60     170.000     8.35849     63.9044     1196.39     5.45912     8.36058     175.900     17.0669     58.5930
     1147.70     200.000     8.35849     63.9011     1196.39     5.45912     8.31134     176.309     16.8067     59.5001
     1147.80     195.000     8.36729     63.9044     1195.13     5.45912     8.29084     176.740     15.7668     63.4243
     1147.90     150.000     8.35849     63.9112     1196.39    -1.36478     8.32092     176.346     16.2541     61.5231
     1148.00     175.000     8.35849     63.9179     1196.39     5.45912     8.25595     175.772     15.5937     64.1287
     1148.10     230.000     8.36289     63.9179     1195.76     5.45912     8.29174     175.842     17.2404     58.0032
     1148.20     130.000     8.35849     63.9112     1196.39     5.45912     8.29700     175.850     14.9447     66.9134
     1148.30     250.000     8.36289     63.9112     1195.76     5.45912     8.22171     175.884     15.0744     66.3375
     1148.40     180.000     8.35849     63.9179     1196.39    -1.36478     8.31277     175.852     16.3299     61.2374
     1148.50     110.000     8.35849     63.9246     1196.39     5.45912     8.26819     175.470     15.9400     62.7352
     1148.60     85.0000     8.35849     63.9381     1196.39     5.45912     8.25137     176.683     16.1133     62.0606
     1148.70     130.000     8.35849     63.9381     1196.39     5.45912     8.24685     175.999     15.2312     65.6545
     1148.80     125.000     8.35849     63.9448     1196.39     5.45912     8.25803     175.512     15.8209     63.2074
     1148.90     150.000     8.35408     63.9415     1197.02     5.45912     8.17867     176.235     15.6369     63.9511
     1149.00     80.0000     8.35849     63.9381     1196.39    -1.36478     8.18131     176.083     16.1999     61.7287
     1149.10     70.0000     8.35408     63.9381     1197.02     5.45912     8.19317     175.338     16.3299     61.2374
     1149.20     140.000     8.35849     63.9381     1196.39     5.45912     8.23463     174.937     14.0372     71.2390
     1149.30     30.0000     8.35849     63.9314     1196.39     5.45912     8.15188     174.873     15.8101     63.2507
     1149.40     105.000     8.35849     63.9246     1196.39     5.45912     8.19401     174.527     14.7285     67.8955
     1149.50     10.0000     8.35849     63.9213     1196.39     5.45912     8.17457     174.320     15.2042     65.7713
     1149.60     95.0000     8.35849     63.9179     1196.39     5.45912     8.03903     175.315     15.1609     65.9590
     1149.70     70.0000     8.35849     63.9145     1196.39     5.45912     8.41695     174.307     14.7717     67.6968
     1149.80     105.000     8.35849     63.9044     1196.39    -1.36478     8.22067     173.601     14.6097     68.4479
     1149.90     110.000     8.36289     63.8943     1195.76    -1.36478     8.26074     173.946     15.3178     65.2837
     1150.00     85.0000     8.35849     63.8910     1196.39     2.04717     8.16866     174.430     15.1609     65.9590
     1150.10     60.0000     8.35849     63.8943     1196.39     5.45912     8.04279     174.838     14.2964     69.9478
     1150.20     80.0000     8.35849     63.9044     1196.39     5.45912     8.37884     175.575     14.0804     71.0206
     1150.30     130.000     8.35849     63.9044     1196.39     5.45912     8.72306     175.448     16.6333     60.1204
     1150.40     125.000     8.35849     63.9112     1196.39     5.45912     7.54771     177.104     15.8101     63.2507
     1150.50     110.000     8.35849     63.9145     1196.39     5.45912     8.36988     176.249     15.9400     62.7352
     1150.60     110.000     8.35849     63.9314     1196.39     5.45912     8.49433     176.912     15.5504     64.3072
     1150.70     90.0000     8.35849     63.9213     1196.39     5.45912     8.47251     176.076     14.2100     70.3730
     1150.80     140.000     8.35849     63.9246     1196.39     5.45912     8.50740     175.715     14.7285     67.8955
     1150.90     110.000     8.35849     63.9314     1196.39     5.45912     7.89965     174.975     14.3396     69.7370
     1151.00     115.000     8.35849     63.9381     1196.39     5.45912     9.00054     175.732     14.4692     69.1123
     1151.10     90.0000     8.35849     63.9347     1196.39     5.45912     8.06745     173.593     15.1609     65.9590
     1151.20     115.000     8.35849     63.9381     1196.39     5.45912     8.68472     176.434     16.1133     62.0606
     1151.30     120.000     8.35849     63.9314     1196.39     5.45912     8.75064     173.139     15.1609     65.9590
     1151.40     110.000     8.35849     63.9280     1196.39     5.45912     7.20443     173.471     13.4330     74.4434
     1151.50     110.000     8.34968     63.9314     1197.65     5.45912     8.33036     174.041     14.6421     68.2964
     1151.60     185.000     8.35849     63.9347     1196.39     5.45912     8.26448     173.267     15.5937     64.1287
     1151.70     60.0000     8.34968     63.9314     1197.65     5.45912     8.31697     176.245     15.1177     66.1477
     1151.80     115.000     8.35849     63.9347     1196.39     5.45912     8.69194     176.792     15.7668     63.4243
     1151.90     135.000     8.35849     63.9381     1196.39    -1.36478     9.11426     176.868     15.9400     62.7352
     1152.00     90.0000     8.34968     63.9448     1197.65    -1.36478     7.62359     179.730     14.3828     69.5276
     1152.10     115.000     8.35849     63.9516     1196.39     5.45912     8.51451     179.466     16.1566     61.8942
     1152.20     100.000     8.35408     63.9482     1197.02     5.45912     9.37497     176.825     15.9400     62.7352
     1152.30     130.000     8.34968     63.9448     1197.65    -1.36478     8.07546     178.350     16.1133     62.0606
     1152.40     115.000     8.35408     63.9448     1197.02    -1.36478     8.03233     177.723     16.5466     60.4354
     1152.50     170.000     8.35849     63.9314     1196.39     5.45912     8.19288     178.646     15.6802     63.7746
     1152.60     155.000     8.34968     63.9381     1197.65     5.45912     7.99800     177.552     14.3396     69.7370
     1152.70     150.000     8.34968     63.9381     1197.65     5.45912     8.72467     178.437     18.0218     55.4885
     1152.80     110.000     8.35408     63.9314     1197.02     5.45912     6.78710     177.408     16.4599     60.7537
     1152.90     110.000     8.34968     63.9381     1197.65     5.45912     9.84826     178.869     14.9015     67.1076
     1153.00     130.000     8.35408     63.9482     1197.02     5.45912     7.91520     180.733     15.8534     63.0779
     1153.10     200.000     8.35849     63.9516     1196.39     5.45912     9.04305     176.256     14.4692     69.1123
     1153.20     215.000     8.35408     63.9516     1197.02     5.45912     6.99151     179.161     16.2432     61.5641
     1153.30     150.000     8.34968     63.9516     1197.65     5.45912     10.0277     175.915     15.2475     65.5847
     1153.40     120.000     8.35408     63.9516     1197.02     5.45912     8.41638     177.935     14.0372     71.2390
