#------------------------------------------------------------
~VERSION INFORMATION
VERS.               2.0  :CWLS LOG ASCII STANDARD - VERSION 2.0
WRAP.                NO  :ONE LINE PER DEPTH STEP
#------------------------------------------------------------
~WELL INFORMATION
STRT.FT         1.10000  :FIRST INDEX VALUE
STOP.FT         1439.10  :LAST INDEX VALUE
STEP.FT        0.100000  :STEP
NULL.            -99999  :NULL VALUE
COMP.         Princeton  :COMP
WELL.                    :
FLD.                     :
LOC.                     :LOC
SRVC.      Driller/USGS  :SRVC
CTRY.                    :
STAT.                NJ  :STAT
CNTY.            Mercer  :CNTY
DATE.         8/20/2019  :DATE
UWI.    XXXXXXXXXXXXXXX  :UWI
#------------------------------------------------------------
~CURVE INFORMATION
DEPT.FT                  :DEPTH
GAM(NAT).CPS             :GAM(NAT)
RES(FL).OHM-M            :RES(FL)
TEMP.DEG_F               :TEMP
SP_COND_.US/CM           :SP COND 
SUSCEP.CGS_E-5           :SUSCEP
MAG_TILT.DEG             :Mag Tilt
MAG_AZI.DEG              :Mag Azi
COND.MMHO/M              :COND
RES.OHM-M                :RES
#------------------------------------------------------------
~OTHER
#------------------------------------------------------------
~A  DEPT[FT]    GAM(NAT)     RES(FL)        TEMP    SP_COND_      SUSCEP    MAG_TILT     MAG_AZI        COND         RES
# ...
     476.800     125.000     32.6421     57.5250     306.353    -1.36478     6.04057     134.005     15.1069     66.1950
     476.900     100.000     32.5364     57.5853     307.348    -1.36478     6.21432     133.421     17.3923     57.4968
     477.000     145.000     32.4571     57.6557     308.099    -1.36478     6.09652     132.589     15.2366     65.6312
     477.100     150.000     32.3294     57.7260     309.316    -1.36478     6.06399     131.810     15.9725     62.6076
     477.200     120.000     32.1753     57.7695     310.798    -1.36478     6.08136     130.401     16.2324     61.6052
     477.300     180.000     31.8406     57.7997     314.065    -1.36478     6.03611     130.871     16.9259     59.0809
     477.400     110.000     31.4618     57.8198     317.845     5.45912     6.12329     131.045     17.0127     58.7797
     477.500     170.000     31.2945     57.8465     319.545     5.45912     5.93877     131.637     16.6658     60.0032
     477.600     150.000     31.0258     57.8800     322.312     5.45912     6.02285     133.229     17.7232     56.4231
     477.700     145.000     30.7220     57.8968     325.500     5.45912     6.06922     134.704     16.0591     62.2699
     477.800     80.0000     30.4797     57.9068     328.087     5.45912     6.03147     135.761     15.8318     63.1642
     477.900     190.000     30.2728     57.9202     330.330    -1.36478     6.18391     135.125     16.7959     59.5385
     478.000     180.000     30.0570     57.9236     332.702    -1.36478     5.87691     136.290     17.1320     58.3704
     478.100     205.000     29.8412     57.9336     335.108    -1.36478     6.33494     135.700     16.9259     59.0809
     478.200     170.000     29.6782     57.9437     336.947     5.45912     5.77955     137.729     16.1620     61.8735
     478.300     130.000     29.5153     57.9470     338.808     5.45912     5.91747     133.903     16.5791     60.3169
     478.400     100.000     29.4272     57.9504     339.822     5.45912     5.80036     137.788     18.4019     54.3423
     478.500     110.000     29.2819     57.9470     341.508     5.45912     6.42607     135.296     18.8093     53.1652
     478.600     145.000     29.1718     57.9303     342.797     5.45912     6.09526     135.003     16.4924     60.6340
     478.700     180.000     29.0705     57.9001     343.992     5.45912     6.03901     135.081     17.3055     57.7851
     478.800     165.000     29.0044     57.8733     344.775     5.45912     6.06595     135.394     16.8555     59.3279
     478.900     110.000     28.9075     57.8365     345.931     5.45912     6.11637     135.286     17.5333     57.0342
     479.000     160.000     28.8547     57.8064     346.564    -1.36478     6.10571     135.264     17.7070     56.4750
     479.100     135.000     28.8106     57.7896     347.094     2.04717     6.10170     135.456     18.8963     52.9205
     479.200     160.000     28.8018     57.7863     347.200     5.45912     6.10515     135.943     17.8263     56.0967
     479.300     175.000     28.7754     57.8131     347.519     5.45912     6.05235     136.684     21.1873     47.1981
     479.400     170.000     28.7358     57.8332     347.998     5.45912     6.06157     136.401     20.2016     49.5011
     479.500     170.000     28.6785     57.8532     348.693     5.45912     6.06975     136.369     18.4019     54.3423
     479.600     210.000     28.6257     57.8767     349.337     5.45912     5.92656     136.856     20.6970     48.3161
     479.700     170.000     28.5332     57.8934     350.469     5.45912     6.15657     136.777     18.8800     52.9662
     479.800     150.000     28.3790     57.9303     352.373     5.45912     5.73095     137.945     19.8261     50.4386
     479.900     210.000     28.2161     57.9805     354.408     5.45912     6.52584     136.697     20.3159     49.2225
     480.000     135.000     28.0531     58.0207     356.466     5.45912     6.13647     136.403     19.6792     50.8150
     480.100     180.000     27.9122     58.0609     358.266     5.45912     5.99573     137.861     20.2615     49.3548
     480.200     185.000     27.7316     58.0877     360.599    -1.36478     5.56309     138.658     20.4901     48.8040
     480.300     340.000     27.5335     58.1078     363.194    -1.36478     6.74359     140.299     21.2745     47.0046
     480.400     240.000     27.2648     58.1212     366.773     2.04717     5.96958     138.991     21.6833     46.1184
     480.500     215.000     27.0226     58.1279     370.061     5.45912     6.62831     137.242     21.4816     46.5515
     480.600     280.000     26.8200     58.1513     372.856     5.45912     5.39839     139.004     20.8986     47.8502
     480.700     225.000     26.6967     58.1748     374.578     5.45912     6.01795     137.071     20.7515     48.1893
     480.800     200.000     26.5734     58.1948     376.316     5.45912     6.18219     135.496     20.7842     48.1135
     480.900     190.000     26.3532     58.2082     379.461     5.45912     6.04462     135.262     20.1417     49.6482
     481.000     150.000     26.2299     58.2183     381.244    -1.36478     6.13565     135.258     20.7678     48.1514
     481.100     185.000     26.0713     58.2350     383.563     5.45912     6.04713     136.652     20.4357     48.9341
     481.200     110.000     25.8864     58.2518     386.304     5.45912     6.00119     136.696     18.5051     54.0393
     481.300     290.000     25.6001     58.2752     390.623     5.45912     6.61301     138.842     18.8365     53.0885
     481.400     195.000     25.3139     58.2819     395.041     5.45912     5.80770     140.117     18.4888     54.0869
     481.500     200.000     25.0232     58.2987     399.629     5.45912     6.42737     140.551     17.9675     55.6561
     481.600     175.000     24.8118     58.3221     403.034     5.45912     5.90147     140.253     19.1300     52.2740
     481.700     240.000     24.5035     58.3322     408.105     5.45912     6.19770     139.541     18.4888     54.0869
     481.800     260.000     24.2041     58.3489     413.154     5.45912     5.89357     137.910     18.2444     54.8114
     481.900     330.000     23.9839     58.3656     416.947     5.45912     6.17322     137.479     18.1738     55.0243
     482.000     220.000     23.6932     58.3757     422.062     5.45912     6.11780     136.086     17.9675     55.6561
     482.100     155.000     23.3849     58.4025     427.626     5.45912     6.11561     135.676     17.8969     55.8756
     482.200     220.000     23.0150     58.4293     434.500     5.45912     5.95638     134.950     18.4019     54.3423
     482.300     195.000     22.7507     58.4360     439.546     2.04717     6.09689     135.968     18.5757     53.8338
     482.400     250.000     22.4425     58.4494     445.584    -1.36478     5.97528     135.605     18.8528     53.0426
     482.500     270.000     22.0285     58.4628     453.958    -1.36478     5.98607     137.193     17.3597     57.6046
     482.600     160.000     21.7554     58.4795     459.655    -1.36478     6.43961     138.565     17.1320     58.3704
     482.700     150.000     21.4119     58.4896     467.030    -1.36478     5.92722     139.617     17.5496     56.9813
     482.800     190.000     21.0244     58.4963     475.639    -1.36478     6.26012     139.894     17.7070     56.4750
     482.900     250.000     20.6809     58.5063     483.539    -1.36478     6.13086     139.526     18.3475     54.5032
     483.000     200.000     20.2933     58.5230     492.773    -1.36478     6.10047     138.945     18.4888     54.0869
     483.100     110.000     20.0467     58.5297     498.836    -1.36478     6.13990     138.855     17.8969     55.8756
     483.200     150.000     19.6812     58.5498     508.100     5.45912     6.10994     138.928     19.5650     51.1117
     483.300     185.000     19.2980     58.5565     518.188     5.45912     6.07891     139.204     18.4888     54.0869
     483.400     260.000     18.8312     58.5699     531.034     5.45912     6.11463     138.678     19.4345     51.4550
