#------------------------------------------------------------
~VERSION INFORMATION
VERS.               2.0  :CWLS LOG ASCII STANDARD - VERSION 2.0
WRAP.                NO  :ONE LINE PER DEPTH STEP
#------------------------------------------------------------
~WELL INFORMATION
STRT.FT         1.10000  :FIRST INDEX VALUE
STOP.FT         1439.10  :LAST INDEX VALUE
STEP.FT        0.100000  :STEP
NULL.            -99999  :NULL VALUE
COMP.         Princeton  :COMP
WELL.                    :
FLD.                     :
LOC.                     :LOC
SRVC.      Driller/USGS  :SRVC
CTRY.                    :
STAT.                NJ  :STAT
CNTY.            Mercer  :CNTY
DATE.         8/20/2019  :DATE
UWI.    XXXXXXXXXXXXXXX  :UWI
#------------------------------------------------------------
~CURVE INFORMATION
DEPT.FT                  :DEPTH
GAM(NAT).CPS             :GAM(NAT)
RES(FL).OHM-M            :RES(FL)
TEMP.DEG_F               :TEMP
SP_COND_.US/CM           :SP COND 
SUSCEP.CGS_E-5           :SUSCEP
MAG_TILT.DEG             :Mag Tilt
MAG_AZI.DEG              :Mag Azi
COND.MMHO/M              :COND
RES.OHM-M                :RES
#------------------------------------------------------------
~OTHER
#------------------------------------------------------------
~A  DEPT[FT]    GAM(NAT)     RES(FL)        TEMP    SP_COND_      SUSCEP    MAG_TILT     MAG_AZI        COND         RES
# ...
     858.700     110.000     8.86935     62.2009     1127.48     5.45912     7.33178     185.616     18.0218     55.4885
     858.800     50.0000     8.86054     62.1975     1128.60     5.45912     6.99341     186.738     17.5550     56.9637
     858.900     30.0000     8.86935     62.1874     1127.48     5.45912     6.83180     184.057     15.8372     63.1426
     859.000     70.0000     8.86494     62.1773     1128.04     5.45912     6.82072     183.636     17.1537     58.2966
     859.100     80.0000     8.86054     62.1740     1128.60    -1.36478     7.17988     185.221     16.1837     61.7907
     859.200     55.0000     8.86494     62.1672     1128.04     5.45912     6.85541     183.621     15.5071     64.4866
     859.300     90.0000     8.86935     62.1672     1127.48     5.45912     6.29156     181.811     17.0344     58.7049
     859.400     55.0000     8.86054     62.1740     1128.60     5.45912     6.87844     183.518     16.5899     60.2775
     859.500     110.000     8.86935     62.1740     1127.48     5.45912     6.96022     182.890     18.6843     53.5208
     859.600     75.0000     8.85614     62.1773     1129.16     5.45912     6.84603     185.776     18.3095     54.6164
     859.700     100.000     8.86054     62.1740     1128.60     5.45912     7.44849     178.326     15.9942     62.5228
     859.800     60.0000     8.85173     62.1874     1129.72    -1.36478     6.43989     178.552     14.8150     67.4993
     859.900     50.0000     8.86054     62.1942     1128.60    -1.36478     6.89929     176.437     16.7471     59.7119
     860.000     65.0000     8.86054     62.2076     1128.60    -1.36478     6.68149     179.005     17.5876     56.8583
     860.100     50.0000     8.85614     62.2076     1129.16    -1.36478     6.67470     178.512     16.5303     60.4949
     860.200     95.0000     8.86054     62.2076     1128.60     2.04717     7.03261     177.409     16.5466     60.4354
     860.300     30.0000     8.85614     62.1942     1129.16     5.45912     7.13508     179.036     16.7037     59.8669
     860.400     85.0000     8.86054     62.1942     1128.60     5.45912     6.73007     177.055     16.3407     61.1968
     860.500     100.000     8.85614     62.1975     1129.16     5.45912     6.37877     175.954     17.0669     58.5930
     860.600     120.000     8.86054     62.2076     1128.60     5.45912     7.82968     177.765     18.0489     55.4050
     860.700     90.0000     8.86494     62.2144     1128.04     5.45912     7.10810     176.783     18.2824     54.6975
     860.800     100.000     8.86935     62.2144     1127.48     5.45912     7.07049     177.501     18.6572     53.5987
     860.900     90.0000     8.86054     62.2144     1128.60     5.45912     6.82761     176.572     18.6300     53.6769
     861.000     30.0000     8.86935     62.2144     1127.48     5.45912     6.64651     178.618     18.0218     55.4885
     861.100     75.0000     8.86054     62.2177     1128.60     5.45912     7.16966     176.981     17.2241     58.0580
     861.200     90.0000     8.86054     62.2278     1128.60     5.45912     7.47618     177.299     17.0669     58.5930
     861.300     60.0000     8.86054     62.2278     1128.60     5.45912     7.46072     177.171     18.4833     54.1028
     861.400     120.000     8.86054     62.2413     1128.60     2.04717     5.81679     177.894     17.6744     56.5790
     861.500     170.000     8.86054     62.2379     1128.60    -1.36478     7.41423     177.516     18.0760     55.3218
     861.600     60.0000     8.86054     62.2413     1128.60     5.45912     6.47253     177.454     19.2387     51.9785
     861.700     75.0000     8.86054     62.2480     1128.60     5.45912     7.78930     176.467     17.7287     56.4058
     861.800     90.0000     8.85173     62.2480     1129.72     5.45912     7.06345     175.922     17.5876     56.8583
     861.900     90.0000     8.86054     62.2413     1128.60     5.45912     7.02560     176.051     16.8609     59.3088
     862.000     80.0000     8.85614     62.2346     1129.16     5.45912     7.01536     175.770     17.0669     58.5930
     862.100     85.0000     8.85173     62.2211     1129.72     5.45912     7.19687     174.630     18.3530     54.4871
     862.200     80.0000     8.85173     62.2144     1129.72     5.45912     6.94011     176.071     17.0669     58.5930
     862.300     90.0000     8.85173     62.2144     1129.72     5.45912     7.12202     174.154     18.4562     54.1824
     862.400     70.0000     8.85173     62.2076     1129.72     2.04717     7.26797     173.657     20.5990     48.5460
     862.500     65.0000     8.85173     62.2144     1129.72    -1.36478     6.84430     175.397     18.7169     53.4276
     862.600     60.0000     8.85173     62.2312     1129.72     5.45912     6.89473     174.303     18.3095     54.6164
     862.700     110.000     8.84292     62.2413     1130.85     5.45912     6.87461     176.149     17.4140     57.4251
     862.800     110.000     8.85173     62.2447     1129.72     5.45912     6.92982     175.855     18.2389     54.8278
     862.900     75.0000     8.85173     62.2346     1129.72     5.45912     7.02018     176.027     16.8609     59.3088
     863.000     130.000     8.85173     62.2312     1129.72     5.45912     6.85740     176.203     18.2389     54.8278
     863.100     100.000     8.85173     62.2413     1129.72     5.45912     6.85685     176.360     18.0218     55.4885
     863.200     110.000     8.85173     62.2447     1129.72     5.45912     6.90582     174.835     17.9023     55.8586
     863.300     60.0000     8.85173     62.2480     1129.72     5.45912     6.75577     175.543     18.1955     54.9587
     863.400     140.000     8.85173     62.2379     1129.72     5.45912     6.78098     179.738     16.6008     60.2382
     863.500     115.000     8.85173     62.2278     1129.72     5.45912     6.73712     174.490     16.8501     59.3470
     863.600     60.0000     8.85173     62.2245     1129.72     5.45912     6.73065     175.064     16.7200     59.8087
     863.700     65.0000     8.85173     62.2346     1129.72     5.45912     6.67866     174.984     17.2947     57.8213
     863.800     100.000     8.85173     62.2413     1129.72     5.45912     6.81341     174.966     16.6333     60.1204
     863.900     110.000     8.85173     62.2548     1129.72     5.45912     6.68274     175.746     15.9400     62.7352
     864.000     90.0000     8.85173     62.2682     1129.72     5.45912     6.65164     175.953     16.7037     59.8669
     864.100     70.0000     8.85173     62.2884     1129.72     5.45912     6.63035     175.972     14.8150     67.4993
     864.200     80.0000     8.85173     62.2952     1129.72     5.45912     6.66740     176.529     16.4599     60.7537
     864.300     70.0000     8.85173     62.3019     1129.72     5.45912     6.70837     176.088     16.0537     62.2909
     864.400     75.0000     8.85173     62.3086     1129.72     5.45912     6.64822     176.168     17.6744     56.5790
     864.500     70.0000     8.84733     62.3154     1130.28     5.45912     6.66091     176.098     16.5303     60.4949
     864.600     85.0000     8.85173     62.3221     1129.72    -1.36478     6.61727     176.104     17.4682     57.2468
     864.700     50.0000     8.84292     62.3221     1130.85     2.04717     6.64594     175.876     16.2866     61.4003
     864.800     80.0000     8.85173     62.3221     1129.72     5.45912     6.57745     175.641     16.5032     60.5942
     864.900     130.000     8.84733     62.3154     1130.28    -1.36478     6.61307     175.565     17.7287     56.4058
     865.000     55.0000     8.84292     62.3154     1130.85    -1.36478     6.56614     175.438     16.5032     60.5942
     865.100     50.0000     8.84292     62.3154     1130.85    -1.36478     6.50381     176.424     16.8934     59.1947
     865.200     50.0000     8.84292     62.3086     1130.85     5.45912     6.46534     175.677     16.0266     62.3961
     865.300     140.000     8.84292     62.3053     1130.85    -1.36478     6.59632     175.926     15.5341     64.3743
