#------------------------------------------------------------
~VERSION INFORMATION
VERS.               2.0  :CWLS LOG ASCII STANDARD - VERSION 2.0
WRAP.                NO  :ONE LINE PER DEPTH STEP
#------------------------------------------------------------
~WELL INFORMATION
STRT.FT         1.10000  :FIRST INDEX VALUE
STOP.FT         1439.10  :LAST INDEX VALUE
STEP.FT        0.100000  :STEP
NULL.            -99999  :NULL VALUE
COMP.         Princeton  :COMP
WELL.                    :
FLD.                     :
LOC.                     :LOC
SRVC.      Driller/USGS  :SRVC
CTRY.                    :
STAT.                NJ  :STAT
CNTY.            Mercer  :CNTY
DATE.         8/20/2019  :DATE
UWI.    XXXXXXXXXXXXXXX  :UWI
#------------------------------------------------------------
~CURVE INFORMATION
DEPT.FT                  :DEPTH
GAM(NAT).CPS             :GAM(NAT)
RES(FL).OHM-M            :RES(FL)
TEMP.DEG_F               :TEMP
SP_COND_.US/CM           :SP COND 
SUSCEP.CGS_E-5           :SUSCEP
MAG_TILT.DEG             :Mag Tilt
MAG_AZI.DEG              :Mag Azi
COND.MMHO/M              :COND
RES.OHM-M                :RES
#------------------------------------------------------------
~OTHER
#------------------------------------------------------------
~A  DEPT[FT]    GAM(NAT)     RES(FL)        TEMP    SP_COND_      SUSCEP    MAG_TILT     MAG_AZI        COND         RES
# ...
     1240.60     180.000     8.01497     64.3960     1247.66     5.45912     9.10802     200.689     17.2187     58.0763
     1240.70     160.000     8.01497     64.3960     1247.66     5.45912     9.05436     200.430     18.1412     55.1232
     1240.80     105.000     8.01497     64.3960     1247.66     2.04717     9.02909     200.337     16.4382     60.8338
     1240.90     80.0000     8.02378     64.3825     1246.30     5.45912     9.04368     200.977     17.0127     58.7797
     1241.00     50.0000     8.01497     64.3825     1247.66     2.04717     9.03634     201.060     17.9675     55.6561
     1241.10     110.000     8.01497     64.3825     1247.66     5.45912     9.05946     200.983     18.2281     54.8604
     1241.20     100.000     8.01497     64.3858     1247.66     5.45912     9.04550     200.455     15.0366     66.5044
     1241.30     90.0000     8.01497     64.3892     1247.66     5.45912     9.10277     201.277     15.1069     66.1950
     1241.40     70.0000     8.01057     64.3960     1248.35    -1.36478     9.06721     200.892     16.4220     60.8940
     1241.50     75.0000     8.01497     64.3960     1247.66     2.04717     9.03911     201.278     17.7070     56.4750
     1241.60     70.0000     8.00617     64.4027     1249.04    -1.36478     9.02188     201.124     17.1157     58.4259
     1241.70     85.0000     8.01497     64.4095     1247.66     5.45912     9.04384     200.711     17.7395     56.3713
     1241.80     110.000     8.00617     64.4095     1249.04     5.45912     9.04221     201.303     15.6261     63.9954
     1241.90     45.0000     8.01497     64.4162     1247.66     5.45912     9.03263     201.539     15.4854     64.5768
     1242.00     70.0000     8.00617     64.4128     1249.04     5.45912     9.07220     201.668     14.6907     68.0703
     1242.10     55.0000     8.00617     64.4095     1249.04     5.45912     8.99205     201.356     15.4530     64.7124
     1242.20     110.000     8.00617     64.4162     1249.04     5.45912     9.01690     201.556     16.1187     62.0398
     1242.30     45.0000     8.00617     64.4162     1249.04     5.45912     9.05207     201.604     15.8859     62.9489
     1242.40     80.0000     8.00617     64.4162     1249.04     5.45912     9.01010     201.307     15.5558     64.2848
     1242.50     25.0000     7.99736     64.4162     1250.41     5.45912     9.00994     201.212     17.8806     55.9265
     1242.60     10.0000     8.00176     64.4095     1249.72     5.45912     9.00076     201.990     16.0754     62.2070
     1242.70     35.0000     8.00617     64.4095     1249.04     5.45912     9.03844     201.497     17.5333     57.0342
     1242.80     40.0000     8.00617     64.4027     1249.04     5.45912     9.02765     201.113     16.7850     59.5770
     1242.90     55.0000     8.00617     64.4027     1249.04     5.45912     9.10499     201.191     17.3760     57.5506
     1243.00     60.0000     8.00617     64.3993     1249.04    -1.36478     9.05291     201.376     15.7993     63.2940
     1243.10     55.0000     8.00617     64.4027     1249.04    -1.36478     9.04837     201.776     16.2920     61.3799
     1243.20     90.0000     8.00176     64.4061     1249.72     5.45912     9.02977     202.194     14.9339     66.9618
     1243.30     105.000     8.00617     64.4162     1249.04     5.45912     9.00599     201.882     17.0723     58.5743
     1243.40     70.0000     8.01057     64.4162     1248.35     5.45912     9.00088     202.596     17.3597     57.6046
     1243.50     65.0000     8.00617     64.4095     1249.04    -1.36478     9.00072     202.205     18.2009     54.9423
     1243.60     70.0000     8.00617     64.4027     1249.04    -1.36478     9.07212     201.063     16.5791     60.3169
     1243.70     75.0000     8.00617     64.3960     1249.04    -1.36478     9.01016     202.313     18.2009     54.9423
     1243.80     130.000     8.00176     64.3926     1249.72    -1.36478     9.01406     201.939     18.5757     53.8338
     1243.90     65.0000     8.00617     64.3960     1249.04     5.45912     9.00519     202.854     18.3150     54.6002
     1244.00     60.0000     8.00617     64.3960     1249.04     5.45912     8.95587     201.706     17.5930     56.8408
     1244.10     65.0000     8.00617     64.3960     1249.04     5.45912     8.98403     202.465     16.9259     59.0809
     1244.20     60.0000     8.00617     64.3993     1249.04     5.45912     9.01163     203.365     18.8093     53.1652
     1244.30     65.0000     8.00617     64.4027     1249.04     5.45912     8.96667     202.220     16.6658     60.0032
     1244.40    0.000000     8.00176     64.4027     1249.72     5.45912     9.02831     204.123     17.3326     57.6947
     1244.50     55.0000     8.00617     64.3960     1249.04     5.45912     9.02746     203.452     19.0430     52.5127
     1244.60     70.0000     8.00176     64.3892     1249.72    -1.36478     9.01125     204.504     17.8372     56.0626
     1244.70     45.0000     8.00617     64.3825     1249.04    -1.36478     9.02495     204.199     18.4344     54.2463
     1244.80     40.0000     8.00617     64.3791     1249.04    -1.36478     8.95310     203.400     18.9397     52.7990
     1244.90     90.0000     8.01057     64.3825     1248.35    -1.36478     9.02441     204.758     19.9676     50.0812
     1245.00     90.0000     8.00617     64.3825     1249.04    -1.36478     9.09769     204.184     19.9404     50.1496
     1245.10     55.0000     8.00176     64.3758     1249.72     2.04717     8.90364     203.536     18.4019     54.3423
     1245.20     100.000     8.00617     64.3724     1249.04     5.45912     9.04186     204.070     19.0430     52.5127
     1245.30     70.0000     8.00617     64.3690     1249.04     5.45912     8.91660     203.746     19.0104     52.6028
     1245.40     40.0000     8.00617     64.3690     1249.04     5.45912     9.02539     204.533     19.8261     50.4386
     1245.50     40.0000     8.00176     64.3690     1249.72     5.45912     9.05661     204.415     19.8098     50.4801
     1245.60     50.0000     7.99736     64.3690     1250.41     5.45912     9.03312     204.339     19.7935     50.5218
     1245.70     70.0000     8.00617     64.3724     1249.04     5.45912     8.79263     204.400     18.0272     55.4718
     1245.80     100.000     7.99736     64.3690     1250.41     5.45912     9.06215     203.669     21.0130     47.5897
     1245.90     65.0000     8.00176     64.3690     1249.72     5.45912     9.11915     202.951     19.4617     51.3831
     1246.00     130.000     7.99736     64.3690     1250.41     5.45912     8.97556     204.588     18.5757     53.8338
     1246.10     50.0000     8.00176     64.3690     1249.72    -1.36478     9.07498     203.438     18.8365     53.0885
     1246.20     20.0000     7.99736     64.3690     1250.41    -1.36478     9.24207     202.975     20.8713     47.9126
     1246.30     95.0000     8.00176     64.3623     1249.72     5.45912     8.79365     203.137     20.0710     49.8232
     1246.40     40.0000     7.99736     64.3690     1250.41     5.45912     9.28722     205.544     19.8805     50.3005
     1246.50     50.0000     8.00176     64.3657     1249.72     5.45912     8.96001     204.249     20.5064     48.7652
     1246.60     100.000     7.99736     64.3690     1250.41     5.45912     9.13495     204.432     20.7515     48.1893
     1246.70     60.0000     7.99736     64.3724     1250.41     5.45912     8.98633     203.807     20.2451     49.3946
     1246.80     70.0000     7.99736     64.3758     1250.41     5.45912     8.56035     204.043     19.5650     51.1117
     1246.90     40.0000     8.00176     64.3724     1249.72     5.45912     9.21178     201.131     21.0130     47.5897
     1247.00     20.0000     7.99736     64.3690     1250.41     5.45912     9.19434     202.229     20.6807     48.3543
     1247.10     65.0000     7.99736     64.3758     1250.41     5.45912     9.16094     201.390     21.0130     47.5897
     1247.20     50.0000     7.99736     64.3825     1250.41    -1.36478     8.08618     200.995     19.2007     52.0816
