#------------------------------------------------------------
~VERSION INFORMATION
VERS.               2.0  :CWLS LOG ASCII STANDARD - VERSION 2.0
WRAP.                NO  :ONE LINE PER DEPTH STEP
#------------------------------------------------------------
~WELL INFORMATION
STRT.FT         1.10000  :FIRST INDEX VALUE
STOP.FT         1439.10  :LAST INDEX VALUE
STEP.FT        0.100000  :STEP
NULL.            -99999  :NULL VALUE
COMP.         Princeton  :COMP
WELL.                    :
FLD.                     :
LOC.                     :LOC
SRVC.      Driller/USGS  :SRVC
CTRY.                    :
STAT.                NJ  :STAT
CNTY.            Mercer  :CNTY
DATE.         8/20/2019  :DATE
UWI.    XXXXXXXXXXXXXXX  :UWI
#------------------------------------------------------------
~CURVE INFORMATION
DEPT.FT                  :DEPTH
GAM(NAT).CPS             :GAM(NAT)
RES(FL).OHM-M            :RES(FL)
TEMP.DEG_F               :TEMP
SP_COND_.US/CM           :SP COND 
SUSCEP.CGS_E-5           :SUSCEP
MAG_TILT.DEG             :Mag Tilt
MAG_AZI.DEG              :Mag Azi
COND.MMHO/M              :COND
RES.OHM-M                :RES
#------------------------------------------------------------
~OTHER
#------------------------------------------------------------
~A  DEPT[FT]    GAM(NAT)     RES(FL)        TEMP    SP_COND_      SUSCEP    MAG_TILT     MAG_AZI        COND         RES
     1.10000    -99999.0    -99999.0    -99999.0    -99999.0    -99999.0    -99999.0    -99999.0    -99999.0    -99999.0
     1.20000     53.0072    0.000000    0.000000    0.000000    -99999.0    -99999.0    -99999.0    -99999.0    -99999.0
     1.30000     58.9056    0.000000    0.000000    0.000000    -99999.0    -99999.0    -99999.0    -99999.0    -99999.0
     1.40000     75.7023    0.000000    0.000000    0.000000    -99999.0    -99999.0    -99999.0    -99999.0    -99999.0
     1.50000     59.9876    0.000000    0.000000    0.000000    -99999.0    -99999.0    -99999.0    -99999.0    -99999.0
     1.60000     36.6717    0.000000    0.000000    0.000000    -99999.0    -99999.0    -99999.0    -99999.0    -99999.0
     1.70000     53.3405    0.000000    0.000000    0.000000    0.000000    0.000042   0.0219735    -99999.0    -99999.0
     1.80000     60.0209    0.000000    0.000000    0.000000    0.000000    0.609525     320.802    -99999.0    -99999.0
     1.90000     84.9909    0.000000    0.000000    0.000000    0.000000    0.603614     326.111    -99999.0    -99999.0
     2.00000     70.0037    0.000000    0.000000    0.000000    0.000000    0.549516     324.517    -99999.0    -99999.0
     2.10000     79.9714    0.000000    0.000000    0.000000    0.000000    0.588798     321.614    -99999.0    -99999.0
     2.20000     54.9863    0.000000    0.000000    0.000000    0.000000    0.588133     329.111    -99999.0    -99999.0
     2.30000     40.0170    0.000000    0.000000    0.000000    0.000000    0.598932     325.242    -99999.0    -99999.0
     2.40000     64.9932    0.000000    0.000000    0.000000    0.000000    0.508512     289.777    -99999.0    -99999.0
     2.50000     50.0670    0.000000    0.000000    0.000000    0.000000    0.585246     209.220    -99999.0    -99999.0
     2.60000     104.961    0.000000    0.000000    0.000000    0.000000    0.488076     222.285    -99999.0    -99999.0
     2.70000     65.0038    0.000000    0.000000    0.000000    0.000000    0.520731     209.998    -99999.0    -99999.0
     2.80000     70.0122    0.000000    0.000000    0.000000    0.000000    0.508472     226.246    -99999.0    -99999.0
     2.90000     93.2838    0.000000    0.000000    0.000000    0.000000    0.497684     227.408    -99999.0    -99999.0
     3.00000     55.0159    0.000000    0.000000    0.000000    0.000000    0.462330     263.732    -99999.0    -99999.0
     3.10000     69.9875    0.000000    0.000000    0.000000    0.000000    0.522693     263.263    -99999.0    -99999.0
     3.20000     55.0269    0.000000    0.000000    0.000000    0.000000    0.427446     285.039    -99999.0    -99999.0
     3.30000     100.000    0.000000    0.000000    0.000000    0.000000    0.631718     255.333    -99999.0    -99999.0
     3.40000     99.9659    0.000000    0.000000    0.000000    0.000000    0.542196     276.401    -99999.0    -99999.0
     3.50000     70.0226    0.000000    0.000000    0.000000    0.000000    0.448022     285.949    -99999.0    -99999.0
     3.60000     95.0034    0.000000    0.000000    0.000000    0.000000    0.460361     284.263    -99999.0    -99999.0
     3.70000     99.9779    0.000000    0.000000    0.000000    0.000000    0.580091     324.643    -99999.0    -99999.0
     3.80000     50.0302    0.000000    0.000000    0.000000    0.000000    0.427890     331.895    -99999.0    -99999.0
     3.90000     74.9951    0.000000    0.000000    0.000000    0.000000    0.559973     339.102    -99999.0    -99999.0
     4.00000     70.0224    0.000000    0.000000    0.000000    0.000000    0.404737     6.21778    -99999.0    -99999.0
     4.10000     99.9819    0.000000    0.000000    0.000000    0.000000    0.666031     356.608    -99999.0    -99999.0
     4.20000     65.0257    0.000000    0.000000    0.000000    0.000000    0.540298     353.118    -99999.0    -99999.0
     4.30000     84.9525    0.000000    0.000000    0.000000    0.000000    0.382948     23.5845    -99999.0    -99999.0
     4.40000     40.0164    0.000000    0.000000    0.000000    0.000000    0.466888     356.958    -99999.0    -99999.0
     4.50000     59.9941   0.0317526    0.000000    0.000000    0.000000    0.543015     346.028    -99999.0    -99999.0
     4.60000     50.0107     53.7784    0.000000    0.000000    0.000000    0.396592     25.8267    -99999.0    -99999.0
     4.70000     79.9661     53.7294    0.000000    0.000000    0.000000    0.542387     3.59393    -99999.0    -99999.0
     4.80000     50.0450     53.6894    0.000000    0.000000    0.000000    0.487815     7.72205    -99999.0    -99999.0
     4.90000     99.9867     53.6491   0.0545576    0.000000    0.000000    0.452602     12.5881    -99999.0    -99999.0
     5.00000     80.0130     53.6286     82.0751    0.000000    0.000000    0.456892     8.53108    -99999.0    -99999.0
     5.10000     109.934     53.6285     81.9917    0.000000    0.000000    0.373271     11.7872    -99999.0    -99999.0
     5.20000     55.0049     53.5758     81.9691    0.181615    0.000000    0.435949     359.110    -99999.0    -99999.0
     5.30000     60.0074     53.6095     81.9379     186.534    0.000000    0.369854     19.4261    -99999.0    -99999.0
     5.40000     69.9949     53.6080     81.9047     186.539    0.000000    0.447892     352.712    -99999.0    -99999.0
     5.50000     60.0384     53.5612     81.8762     186.702    0.000000    0.503828     17.3346    -99999.0    -99999.0
     5.60000     90.0104     53.6316     81.8548     186.457    0.000000    0.390039     1.58005    -99999.0    -99999.0
     5.70000     100.016     53.6843     81.8358     186.274    0.000000    0.590194     342.919    -99999.0    -99999.0
     5.80000     119.968     53.5611     81.8192     186.703    0.000000    0.459046     39.3772    -99999.0    -99999.0
     5.90000     65.0194     53.5258     81.8002     186.826    0.000000    0.512693     329.655    -99999.0    -99999.0
     6.00000     119.922     53.5215     81.7824     186.841    0.000000    0.431425     1.99945    -99999.0    -99999.0
     6.10000     50.0444     53.5390     81.7575     186.780    0.000000    0.403622     26.5331    -99999.0    -99999.0
     6.20000     99.9802     53.5170     81.7361     186.857    0.000000    0.698717     326.586    -99999.0    -99999.0
     6.30000     70.0128     53.4378     81.7076     187.134    0.000000    0.496709     62.8245    -99999.0    -99999.0
     6.40000     100.036     53.4421     81.6862     187.118    0.000000    0.498808     348.498    -99999.0    -99999.0
     6.50000     129.962     53.4245     81.6613     187.180    0.000000    0.467497     328.635    -99999.0    -99999.0
     6.60000     90.0073     53.4113     81.6400     187.226    0.000000    0.516872     49.8123    -99999.0    -99999.0
     6.70000     99.9850     53.4069     81.6174     187.242   0.0291160    0.639261     340.472    -99999.0    -99999.0
     6.80000     70.0255     53.4466     81.5972     187.103     58.1720    0.457440     325.976    -99999.0    -99999.0
     6.90000     89.9844     53.4422     81.5723     187.118     51.9469    0.481183     28.7924    -99999.0    -99999.0
     7.00000     75.0040     53.4818     81.5545     186.980     145.293    0.713238     319.936    -99999.0    -99999.0
     7.10000     80.0057     53.4290     81.5367     187.164     75.3603    0.270788     350.658    -99999.0    -99999.0
     7.20000     90.0069     53.4466     81.5225     187.103    -1.35832    0.396740     12.4656    -99999.0    -99999.0
     7.30000     110.011     53.4158     81.5046     187.211     17.4110    0.507687     322.111    -99999.0    -99999.0
     7.40000     119.982     53.4554     81.4797     187.072     103.319    0.400732     351.042    -99999.0    -99999.0
     7.50000     100.006     53.5259     81.4584     186.826     152.126    0.441472     339.953    -99999.0    -99999.0
     7.60000     109.983     53.5478     81.4370     186.749     80.4975    0.453266     331.866    -99999.0    -99999.0
     7.70000     70.0594     53.4334     81.4121     187.149     21.3882    0.301632     338.833    -99999.0    -99999.0
