#------------------------------------------------------------
~VERSION INFORMATION
VERS.               2.0  :CWLS LOG ASCII STANDARD - VERSION 2.0
WRAP.                NO  :ONE LINE PER DEPTH STEP
#------------------------------------------------------------
~WELL INFORMATION
STRT.FT         1.10000  :FIRST INDEX VALUE
STOP.FT         1439.10  :LAST INDEX VALUE
STEP.FT        0.100000  :STEP
NULL.            -99999  :NULL VALUE
COMP.         Princeton  :COMP
WELL.                    :
FLD.                     :
LOC.                     :LOC
SRVC.      Driller/USGS  :SRVC
CTRY.                    :
STAT.                NJ  :STAT
CNTY.            Mercer  :CNTY
DATE.         8/20/2019  :DATE
UWI.    XXXXXXXXXXXXXXX  :UWI
#------------------------------------------------------------
~CURVE INFORMATION
DEPT.FT                  :DEPTH
GAM(NAT).CPS             :GAM(NAT)
RES(FL).OHM-M            :RES(FL)
TEMP.DEG_F               :TEMP
SP_COND_.US/CM           :SP COND 
SUSCEP.CGS_E-5           :SUSCEP
MAG_TILT.DEG             :Mag Tilt
MAG_AZI.DEG              :Mag Azi
COND.MMHO/M              :COND
RES.OHM-M                :RES
#------------------------------------------------------------
~OTHER
#------------------------------------------------------------
~A  DEPT[FT]    GAM(NAT)     RES(FL)        TEMP    SP_COND_      SUSCEP    MAG_TILT     MAG_AZI        COND         RES
# ...
     1341.10     40.0000     7.95332     64.9703     1257.34     5.45912     10.6107     188.907     19.1409     52.2443
     1341.20     70.0000     7.94891     64.9703     1258.03     2.04717     10.3090     189.449     19.2713     51.8905
     1341.30     80.0000     7.94011     64.9703     1259.43    -1.36478     10.7333     189.274     18.5757     53.8338
     1341.40     80.0000     7.93570     64.9669     1260.13    -1.36478     10.4306     188.238     18.6626     53.5831
     1341.50     75.0000     7.94891     64.9635     1258.03     5.45912     10.3091     187.648     20.4030     49.0124
     1341.60     60.0000     7.94451     64.9602     1258.73     5.45912     10.3165     187.056     19.0104     52.6028
     1341.70     55.0000     7.94891     64.9534     1258.03     5.45912     10.4733     188.856     19.0104     52.6028
     1341.80     100.000     7.95332     64.9500     1257.34     5.45912     10.4925     188.930     18.0869     55.2886
     1341.90     50.0000     7.94891     64.9568     1258.03     5.45912     10.2242     187.714     18.8800     52.9662
     1342.00     70.0000     7.94451     64.9635     1258.73     5.45912     10.2854     187.633     20.0546     49.8638
     1342.10     85.0000     7.94891     64.9669     1258.03     2.04717     10.3397     188.144     19.4888     51.3114
     1342.20     20.0000     7.95332     64.9703     1257.34    -1.36478     10.5466     187.803     19.7064     50.7449
     1342.30     110.000     7.95772     64.9737     1256.64    -1.36478     10.3623     188.531     19.8805     50.3005
     1342.40     130.000     7.96213     64.9703     1255.95    -1.36478     10.9284     189.081     19.2713     51.8905
     1342.50     85.0000     7.95772     64.9771     1256.64    -1.36478     10.2306     187.534     19.1300     52.2740
     1342.60     150.000     7.95332     64.9771     1257.34    -1.36478     10.3742     187.457     21.1437     47.2954
     1342.70     130.000     7.96213     64.9771     1255.95    -1.36478     10.1925     187.163     21.1001     47.3931
     1342.80     90.0000     7.96213     64.9771     1255.95     5.45912     10.6878     187.595     21.4053     46.7174
     1342.90     80.0000     7.95772     64.9771     1256.64     2.04717     10.5156     187.370     20.2288     49.4345
     1343.00     120.000     7.96213     64.9771     1255.95     5.45912     10.2146     187.493     18.6626     53.5831
     1343.10     85.0000     7.96213     64.9771     1255.95     5.45912     10.5455     187.776     19.1843     52.1258
     1343.20     60.0000     7.95332     64.9771     1257.34     5.45912     10.6842     189.090     20.5936     48.5589
     1343.30     75.0000     7.96213     64.9771     1255.95     5.45912     10.2424     188.564     20.7515     48.1893
     1343.40     30.0000     7.95772     64.9771     1256.64     5.45912     9.88249     186.712     18.9234     52.8445
     1343.50     70.0000     7.96213     64.9771     1255.95     5.45912     10.9311     189.042     17.7938     56.1994
     1343.60     60.0000     7.95332     64.9771     1257.34     5.45912     10.3097     187.448     19.0974     52.3633
     1343.70     75.0000     7.90928     64.9771     1264.34     5.45912     10.4986     187.845     19.4018     51.5415
     1343.80     40.0000     7.92689     64.9703     1261.53     2.04717     10.2807     188.881     19.6194     50.9700
     1343.90     45.0000     7.94451     64.9602     1258.73    -1.36478     10.6056     186.995     21.1437     47.2954
     1344.00     60.0000     7.95332     64.9500     1257.34     2.04717     10.7161     189.045     20.6644     48.3925
     1344.10     50.0000     7.94891     64.9534     1258.03     5.45912     10.0547     186.981     19.4453     51.4262
     1344.20     70.0000     7.95332     64.9568     1257.34     5.45912     10.2054     186.819     19.3583     51.6574
     1344.30     40.0000     7.95772     64.9602     1256.64     5.45912     11.1200     187.102     19.6629     50.8572
     1344.40     50.0000     7.95332     64.9635     1257.34     5.45912     10.3969     186.208     19.3583     51.6574
     1344.50     30.0000     7.95772     64.9635     1256.64     5.45912     9.98886     186.825     21.3181     46.9085
     1344.60     50.0000     7.95332     64.9703     1257.34     5.45912     10.2702     189.401     20.4030     49.0124
     1344.70     40.0000     7.95772     64.9635     1256.64     5.45912     11.6292     187.237     19.0974     52.3633
     1344.80     20.0000     7.96213     64.9635     1255.95     5.45912     10.4604     187.852     19.5324     51.1971
     1344.90     30.0000     7.95772     64.9635     1256.64     5.45912     10.7969     187.615     20.9694     47.6886
     1345.00     20.0000     7.95332     64.9635     1257.34     5.45912     10.3672     187.470     20.8386     47.9878
     1345.10     40.0000     7.95772     64.9669     1256.64     5.45912     10.9306     188.412     19.9404     50.1496
     1345.20     60.0000     7.96213     64.9703     1255.95     5.45912     9.98211     187.683     19.2713     51.8905
     1345.30     30.0000     7.95772     64.9737     1256.64     5.45912     10.4833     189.316     19.7499     50.6331
     1345.40     30.0000     7.95332     64.9771     1257.34     5.45912     10.5876     186.896     19.9676     50.0812
     1345.50     50.0000     7.95772     64.9872     1256.64     5.45912     10.3837     186.213     19.7935     50.5218
     1345.60     30.0000     7.95332     64.9906     1257.34     5.45912     10.2740     186.689     18.3150     54.6002
     1345.70     40.0000     7.95772     64.9838     1256.64     5.45912     10.7922     187.365     19.8370     50.4109
     1345.80    0.000000     7.95332     64.9838     1257.34     5.45912     10.4988     187.761     20.6644     48.3925
     1345.90     50.0000     7.95772     64.9906     1256.64     5.45912     10.4662     190.003     20.7515     48.1893
     1346.00     50.0000     7.96213     64.9838     1255.95     5.45912     11.2231     189.168     19.9240     50.1906
     1346.10     20.0000     7.95772     64.9906     1256.64     5.45912     10.2039     188.687     19.9676     50.0812
     1346.20     40.0000     7.96213     64.9973     1255.95     5.45912     10.6945     186.281     19.9240     50.1906
     1346.30     15.0000     7.95772     64.9939     1256.64     5.45912     10.7519     185.179     18.2281     54.8604
     1346.40     40.0000     7.95332     65.0041     1257.34     2.04717     10.3535     186.420     18.0109     55.5219
     1346.50     30.0000     7.95772     65.0007     1256.64    -1.36478     10.7254     187.756     19.9676     50.0812
     1346.60     75.0000     7.95332     65.0041     1257.34     2.04717     10.2399     186.868     19.0104     52.6028
     1346.70     20.0000     7.96213     65.0007     1255.95     5.45912     11.0933     188.798     20.8386     47.9878
     1346.80     40.0000     7.95332     65.0041     1257.34     5.45912     10.7274     189.540     19.4018     51.5415
     1346.90     50.0000     7.96213     65.0041     1255.95     5.45912     10.8108     188.807     20.5772     48.5974
     1347.00     55.0000     7.95332     65.0108     1257.34     5.45912     10.5155     187.493     19.4018     51.5415
     1347.10     50.0000     7.95772     65.0075     1256.64     5.45912     10.0677     186.179     18.5757     53.8338
     1347.20     55.0000     7.95332     65.0041     1257.34     5.45912     10.8995     185.701     18.4453     54.2143
     1347.30     50.0000     7.95332     65.0075     1257.34     5.45912     10.5915     185.509     17.4465     57.3180
     1347.40     40.0000     7.95332     65.0041     1257.34     5.45912     10.5923     185.945     18.4888     54.0869
     1347.50     100.000     7.95332     65.0007     1257.34    -1.36478     10.5760     186.331     18.4888     54.0869
     1347.60     55.0000     7.95332     64.9973     1257.34    -1.36478     10.6691     186.514     17.9675     55.6561
     1347.70     10.0000     7.95772     64.9973     1256.64     2.04717     10.5067     186.759     17.7070     56.4750
