#------------------------------------------------------------
~VERSION INFORMATION
VERS.               2.0  :CWLS LOG ASCII STANDARD - VERSION 2.0
WRAP.                NO  :ONE LINE PER DEPTH STEP
#------------------------------------------------------------
~WELL INFORMATION
STRT.FT         1.10000  :FIRST INDEX VALUE
STOP.FT         1439.10  :LAST INDEX VALUE
STEP.FT        0.100000  :STEP
NULL.            -99999  :NULL VALUE
COMP.         Princeton  :COMP
WELL.                    :
FLD.                     :
LOC.                     :LOC
SRVC.      Driller/USGS  :SRVC
CTRY.                    :
STAT.                NJ  :STAT
CNTY.            Mercer  :CNTY
DATE.         8/20/2019  :DATE
UWI.    XXXXXXXXXXXXXXX  :UWI
#------------------------------------------------------------
~CURVE INFORMATION
DEPT.FT                  :DEPTH
GAM(NAT).CPS             :GAM(NAT)
RES(FL).OHM-M            :RES(FL)
TEMP.DEG_F               :TEMP
SP_COND_.US/CM           :SP COND 
SUSCEP.CGS_E-5           :SUSCEP
MAG_TILT.DEG             :Mag Tilt
MAG_AZI.DEG              :Mag Azi
COND.MMHO/M              :COND
RES.OHM-M                :RES
#------------------------------------------------------------
~OTHER
#------------------------------------------------------------
~A  DEPT[FT]    GAM(NAT)     RES(FL)        TEMP    SP_COND_      SUSCEP    MAG_TILT     MAG_AZI        COND         RES
# ...
     383.000     420.000     12.6744     58.0441     788.992     5.45912     5.09890     155.544     16.3624     61.1158
     383.100     510.000     12.6788     58.0475     788.718     5.45912     5.27565     154.442     16.2162     61.6669
     383.200     590.000     12.6832     58.0475     788.444     5.45912     5.06845     156.576     17.9240     55.7910
     383.300     625.000     12.6832     58.0475     788.444     5.45912     5.93701     155.538     17.0561     58.6302
     383.400     670.000     12.6920     58.0475     787.897     5.45912     4.78423     157.291     19.7499     50.6331
     383.500     500.000     12.6920     58.0508     787.897     5.45912     5.37118     155.498     18.2715     54.7300
     383.600     470.000     12.7008     58.0542     787.351     5.45912     5.25047     155.667     17.3163     57.7489
     383.700     385.000     12.7008     58.0542     787.351     5.45912     5.03561     156.759     18.7061     53.4586
     383.800     390.000     12.7140     58.0542     786.532     5.45912     4.75646     154.897     18.7930     53.2113
     383.900     200.000     12.7272     58.0542     785.716     5.45912     4.94189     153.284     18.6191     53.7082
     384.000     275.000     12.7272     58.0542     785.716     5.45912     5.31788     156.202     18.9343     52.8142
     384.100     290.000     12.7405     58.0609     784.901     5.45912     4.88840     157.963     17.9946     55.5722
     384.200     235.000     12.7449     58.0542     784.630     5.45912     6.40053     154.906     16.7091     59.8475
     384.300     170.000     12.7581     58.0609     783.817     5.45912     4.59128     155.806     16.9693     58.9299
     384.400     120.000     12.7713     58.0609     783.007     5.45912     6.08134     152.769     16.3624     61.1158
     384.500     120.000     12.7713     58.0575     783.007     5.45912     5.80563     156.407     16.4491     60.7937
     384.600     200.000     12.7757     58.0542     782.737     5.45912     5.01163     154.432     16.9693     58.9299
     384.700     150.000     12.7889     58.0508     781.928     5.45912     5.07289     154.010     15.6694     63.8186
     384.800     125.000     12.7801     58.0542     782.467     5.45912     5.24507     154.051     16.1024     62.1024
     384.900     110.000     12.7801     58.0542     782.467    -1.36478     5.21554     155.322     15.8426     63.1210
     385.000     170.000     12.7801     58.0575     782.467     5.45912     5.19111     154.969     16.0158     62.4383
     385.100     185.000     12.7889     58.0609     781.928     5.45912     5.16066     155.461     17.4899     57.1758
     385.200     120.000     12.7933     58.0609     781.659     5.45912     5.21540     154.397     14.9771     66.7685
     385.300     145.000     12.7977     58.0609     781.390    -1.36478     5.13551     153.891     16.4924     60.6340
     385.400     250.000     12.8065     58.0642     780.852    -1.36478     5.21630     154.531     16.8826     59.2327
     385.500     200.000     12.8153     58.0609     780.316     5.45912     5.16537     155.280     16.5357     60.4750
     385.600     185.000     12.8241     58.0642     779.780     5.45912     5.24645     153.975     16.3624     61.1158
     385.700     160.000     12.8285     58.0676     779.512     5.45912     5.06420     156.041     16.1891     61.7700
     385.800     150.000     12.8418     58.0676     778.710    -1.36478     5.32829     154.530     16.7091     59.8475
     385.900     150.000     12.8462     58.0642     778.443     5.45912     5.22912     156.124     17.3163     57.7489
     386.000     240.000     12.8506     58.0609     778.176     5.45912     4.44287     156.678     16.0591     62.2699
     386.100     160.000     12.8506     58.0642     778.176     5.45912     6.06714     155.155     15.8426     63.1210
     386.200     120.000     12.8550     58.0609     777.910     5.45912     5.18830     155.727     15.8426     63.1210
     386.300     130.000     12.8594     58.0642     777.643    -1.36478     5.63613     155.135     16.6224     60.1596
     386.400     170.000     12.8594     58.0609     777.643     5.45912     5.31609     154.901     16.5357     60.4750
     386.500     200.000     12.8682     58.0609     777.111     5.45912     5.27306     155.808     16.0158     62.4383
     386.600     230.000     12.8594     58.0609     777.643    -1.36478     5.23540     155.690     16.1458     61.9358
     386.700     240.000     12.8682     58.0609     777.111    -1.36478     5.20963     155.729     16.2216     61.6463
     386.800     270.000     12.8594     58.0609     777.643     5.45912     5.12987     155.141     15.8426     63.1210
     386.900     320.000     12.8682     58.0609     777.111     5.45912     5.17293     156.123     15.3232     65.2606
     387.000     315.000     12.8594     58.0676     777.643    -1.36478     5.15900     155.684     15.8426     63.1210
     387.100     310.000     12.8682     58.0676     777.111     5.45912     5.11599     155.923     16.7959     59.5385
     387.200     450.000     12.8770     58.0609     776.579     5.45912     5.44140     152.246     15.6694     63.8186
     387.300     550.000     12.8682     58.0676     777.111     5.45912     4.96286     154.721     16.4491     60.7937
     387.400     620.000     12.8682     58.0676     777.111     2.04717     5.16251     155.475     18.2715     54.7300
     387.500     520.000     12.8506     58.0676     778.176     5.45912     5.15355     155.812     15.6694     63.8186
     387.600     550.000     12.8506     58.0676     778.176     5.45912     5.02995     156.071     16.6224     60.1596
     387.700     675.000     12.8594     58.0743     777.643     5.45912     5.09504     155.586     17.4899     57.1758
     387.800     750.000     12.8726     58.0709     776.845     5.45912     5.24053     156.868     15.8426     63.1210
     387.900     785.000     12.8858     58.0676     776.049     5.45912     5.12316     157.249     15.8426     63.1210
     388.000     690.000     12.8902     58.0743     775.784     5.45912     5.04220     155.736     14.8906     67.1563
     388.100     630.000     12.8946     58.0743     775.519     5.45912     5.08658     156.476     17.5767     56.8934
     388.200     435.000     12.9034     58.0743     774.989     5.45912     5.08391     156.241     17.4031     57.4609
     388.300     420.000     12.9122     58.0743     774.461     5.45912     5.09180     155.651     17.1428     58.3335
     388.400     335.000     12.9034     58.0743     774.989     5.45912     5.06245     155.376     16.0158     62.4383
     388.500     170.000     12.9078     58.0743     774.725     5.45912     5.08401     155.409     15.6694     63.8186
     388.600     295.000     12.9034     58.0810     774.989     5.45912     5.02380     155.760     16.2757     61.4412
     388.700     280.000     12.9034     58.0743     774.989     5.45912     5.02498     156.155     17.2621     57.9303
     388.800     230.000     12.9034     58.0743     774.989     5.45912     5.31091     156.465     16.7959     59.5385
     388.900     245.000     12.9034     58.0743     774.989     5.45912     5.04416     155.953     17.1428     58.3335
     389.000     150.000     12.9078     58.0743     774.725     5.45912     5.16853     157.394     16.5357     60.4750
     389.100     225.000     12.9122     58.0743     774.461     5.45912     5.13771     156.197     17.2025     58.1312
     389.200     200.000     12.9122     58.0810     774.461    -1.36478     5.17971     156.487     16.1024     62.1024
     389.300     120.000     12.9210     58.0810     773.933     2.04717     5.26923     155.719     16.9693     58.9299
     389.400     165.000     12.9210     58.0743     773.933     5.45912     5.02870     155.326     16.4491     60.7937
     389.500     170.000     12.9342     58.0810     773.142     5.45912     5.09324     156.071     16.2216     61.6463
     389.600     90.0000     12.9386     58.0776     772.879     5.45912     5.19239     155.997     16.6224     60.1596
